$PFLAU,0,0,0,1,0,,0,,,*4F
$PGRMZ,341,F,2*3C
$PFLAU,0,0,0,1,0,,0,,,*4F
$GPRMC,151633.00,A,5231.97520,N,00606.08775,E,1.061,14.20,120224,,,A*5A
$PGRMZ,341,F,2*3C
$GPGGA,151633.00,5231.97520,N,00606.08775,E,1,06,3.95,29.2,M,46.9,M,,*65
$PFLAA,0,-5,19,-76,2,B88965,270,,1,-0.2,1*04
$PFLAL,15163402WsmXR`Yavoy:l:H;K:L;UDN=T=S<*7B
$PFLAU,1,1,1,1,0,,0,,,*4E
$GPRMC,151634.00,A,5231.97537,N,00606.08809,E,0.997,17.19,120224,,,A*57
$PGRMZ,343,F,2*3E
$GPGGA,151634.00,5231.97537,N,00606.08809,E,1,06,3.95,28.7,M,46.9,M,,*64
$PFLAA,0,-6,17,-75,2,B88965,270,,1,-0.2,1*0A
$PFLAU,0,1,1,1,0,,0,,,*4F
$GPRMC,151635.00,A,5231.97527,N,00606.08646,E,0.173,15.82,120224,,,A*50
$PGRMZ,342,F,2*3F
$GPGGA,151635.00,5231.97527,N,00606.08646,E,1,06,3.95,28.9,M,46.9,M,,*6F
$PFLAA,0,-5,22,-75,2,B88965,270,,1,0.2,1*22
$PFLAU,1,1,1,1,0,,0,,,*4E
$GPRMC,151636.00,A,5231.97513,N,00606.08449,E,0.774,9.56,120224,,,A*6C
$GPGGA,151636.00,5231.97513,N,00606.08449,E,1,06,3.95,29.0,M,46.9,M,,*6E
$PGRMZ,342,F,2*3F
$PFLAA,0,-5,26,-75,2,B88965,270,,1,0.2,1*26
$PFLAU,1,1,1,1,0,,0,,,*4E
$GPRMC,151637.00,A,5231.97519,N,00606.08379,E,0.811,4.65,120224,,,A*62
$GPGGA,151637.00,5231.97519,N,00606.08379,E,1,06,3.95,28.8,M,46.9,M,,*68
$PGRMZ,344,F,2*39
$PFLAA,0,-5,26,-75,2,B88965,270,,1,0.2,1*26
$PFLAU,0,1,1,1,0,,0,,,*4F
$GPRMC,151638.00,A,5231.97510,N,00606.08198,E,0.726,358.77,120224,,,A*6B
$GPGGA,151638.00,5231.97510,N,00606.08198,E,1,06,3.95,29.1,M,46.9,M,,*6B
$PGRMZ,344,F,2*39
$PFLAA,0,-5,29,-76,2,B88965,243,,1,0.0,1*28
$PFLAU,1,1,1,1,0,,0,,,*4E
$GPRMC,151639.00,A,5231.97522,N,00606.08201,E,0.978,352.96,120224,,,A*68
$GPGGA,151639.00,5231.97522,N,00606.08201,E,1,06,3.95,29.0,M,46.9,M,,*69
$PGRMZ,344,F,2*39
$PFLAA,0,-5,30,-75,2,B88965,270,,1,0.0,1*23
$PFLAU,1,1,1,1,0,,0,,,*4E
$GPRMC,151640.00,A,5231.97512,N,00606.08104,E,0.487,348.77,120224,,,A*6A
$GPGGA,151640.00,5231.97512,N,00606.08104,E,1,06,3.95,28.9,M,46.9,M,,*6A
$PGRMZ,344,F,2*39
$PFLAA,0,-5,31,-75,2,B88965,0,,1,-0.1,1*0B
$PFLAU,1,1,1,1,0,,0,,,*4E
$GPRMC,151641.00,A,5231.97502,N,00606.08030,E,0.016,,120224,,,A*71
$GPGGA,151641.00,5231.97502,N,00606.08030,E,1,06,3.95,28.9,M,46.9,M,,*6C
$PGRMZ,343,F,2*3E
$PFLAA,0,-5,31,-75,2,B88965,0,,1,-0.2,1*08
$PFLAU,1,1,1,1,0,,0,,,*4E
$GPRMC,151642.00,A,5231.97487,N,00606.07962,E,0.018,,120224,,,A*71
$GPGGA,151642.00,5231.97487,N,00606.07962,E,1,06,3.95,29.0,M,46.9,M,,*6A
$PGRMZ,344,F,2*39
$PFLAA,0,-5,33,-75,2,B88965,270,,1,0.0,1*20
$PFLAU,1,1,1,1,0,,0,,,*4E
$GPRMC,151643.00,A,5231.97466,N,00606.07880,E,0.023,351.62,120224,,,A*67
$PGRMZ,344,F,2*39
$GPGGA,151643.00,5231.97466,N,00606.07880,E,1,06,3.94,29.6,M,46.9,M,,*6E
$PFLAA,0,-4,33,-76,2,B88965,270,,1,0.0,1*22
$PFLAU,0,1,1,1,0,,0,,,*4F
$GPRMC,151644.00,A,5231.97467,N,00606.07944,E,0.011,,120224,,,A*74
$GPGGA,151644.00,5231.97467,N,00606.07944,E,1,06,3.94,29.9,M,46.9,M,,*6E
$PGRMZ,345,F,2*38
$PFLAA,0,-6,34,-76,2,B88965,252,,1,0.0,1*27
$PFLAU,1,1,1,1,0,,0,,,*4E
$GPRMC,151645.00,A,5231.97450,N,00606.07897,E,0.051,348.59,120224,,,A*67
$GPGGA,151645.00,5231.97450,N,00606.07897,E,1,06,3.94,30.1,M,46.9,M,,*64
$PGRMZ,344,F,2*39
$PFLAA,0,-5,36,-77,2,B88965,243,,1,-0.1,1*0B
$PFLAU,1,1,1,1,0,,0,,,*4E
$GPRMC,151646.00,A,5231.97432,N,00606.07850,E,0.058,351.53,120224,,,A*60
$GPGGA,151646.00,5231.97432,N,00606.07850,E,1,06,3.94,30.3,M,46.9,M,,*6A
$PGRMZ,344,F,2*39
$PFLAA,0,-7,38,-77,2,B88965,243,,1,-0.4,1*02
$PFLAU,1,1,1,1,0,,0,,,*4E
$GPRMC,151647.00,A,5231.97414,N,00606.07808,E,0.082,354.51,120224,,,A*68
$GPGGA,151647.00,5231.97414,N,00606.07808,E,1,06,3.94,30.6,M,46.9,M,,*67
$PGRMZ,344,F,2*39
$PFLAA,0,-6,42,-77,2,B88965,243,,1,0.0,1*27
$PFLAU,1,1,1,1,0,,0,,,*4E
$PFLAL,15164803pqvyTYSi_mlsor*7E
$GPRMC,151648.00,A,5231.97399,N,00606.07780,E,0.047,357.22,120224,,,A*64
$GPGGA,151648.00,5231.97399,N,00606.07780,E,1,06,3.94,30.7,M,46.9,M,,*64
$PGRMZ,343,F,2*3E
$PFLAA,0,-6,45,-77,2,B88965,243,,1,-0.3,1*0E
$PFLAU,1,1,1,1,0,,0,,,*4E
$GPRMC,151649.00,A,5231.97394,N,00606.07822,E,0.063,359.72,120224,,,A*62
$GPGGA,151649.00,5231.97394,N,00606.07822,E,1,06,3.94,30.8,M,46.9,M,,*60
$PGRMZ,341,F,2*3C
$PFLAA,0,-6,46,-77,2,B88965,243,,1,-0.1,1*0F
$PFLAU,1,1,1,1,0,,0,,,*4E
$GPRMC,151650.00,A,5231.97388,N,00606.07846,E,0.065,2.49,120224,,,A*66
$GPGGA,151650.00,5231.97388,N,00606.07846,E,1,06,3.94,30.9,M,46.9,M,,*66
$PGRMZ,341,F,2*3C
$PFLAA,0,-6,45,-77,2,B88965,243,,1,-0.1,1*0C
$PFLAU,0,1,1,1,0,,0,,,*4F
$GPRMC,151651.00,A,5231.97371,N,00606.07812,E,0.076,4.86,120224,,,A*67
$GPGGA,151651.00,5231.97371,N,00606.07812,E,1,06,3.94,31.1,M,46.9,M,,*69
$PGRMZ,343,F,2*3E
$PFLAA,0,-7,23,-75,2,B88965,284,,2,-0.1,1*07
$PFLAU,1,1,1,1,0,,0,,,*4E
$GPRMC,151652.00,A,5231.97358,N,00606.07782,E,0.091,7.21,120224,,,A*6E
$GPGGA,151652.00,5231.97358,N,00606.07782,E,1,06,3.94,31.2,M,46.9,M,,*64
$PGRMZ,341,F,2*3C
$PFLAA,0,-5,22,-75,2,B88965,286,,1,-0.3,1*07
$PFLAU,1,1,1,1,0,,0,,,*4E
$GPRMC,151653.00,A,5231.97342,N,00606.07747,E,0.046,9.83,120224,,,A*61
$GPGGA,151653.00,5231.97342,N,00606.07747,E,1,06,3.94,31.4,M,46.9,M,,*61
$PGRMZ,342,F,2*3F
$PFLAL,151653RFC 42 20 0 0 0*3D
$PFLAA,0,-5,21,-75,2,B88965,286,,1,0.0,1*2A
$PFLAU,0,1,1,1,0,,0,,,*4F
$GPRMC,151654.00,A,5231.97329,N,00606.07725,E,0.029,11.99,120224,,,A*54
$GPGGA,151654.00,5231.97329,N,00606.07725,E,1,06,3.94,31.6,M,46.9,M,,*6D
$PGRMZ,344,F,2*39
$PFLAA,0,-5,19,-75,2,B88965,286,,1,0.0,1*21
$PFLAU,0,1,1,1,0,,0,,,*4F
$GPRMC,151655.00,A,5231.97315,N,00606.07709,E,0.037,14.31,120224,,,A*5C
$GPGGA,151655.00,5231.97315,N,00606.07709,E,1,06,3.94,31.7,M,46.9,M,,*6C
$PGRMZ,344,F,2*39
$PFLAA,0,-2,18,-76,2,B88965,291,,2,-0.2,1*0E
$PFLAU,1,1,1,1,0,,0,,,*4E
$GPRMC,151656.00,A,5231.97302,N,00606.07695,E,0.151,16.28,120224,,,A*56
$GPGGA,151656.00,5231.97302,N,00606.07695,E,1,06,3.94,31.8,M,46.9,M,,*62
$PGRMZ,343,F,2*3E
$PFLAA,0,-1,15,-76,2,B88965,288,,2,0.0,1*27
$PFLAU,1,1,1,1,0,,0,,,*4E
$GPRMC,151657.00,A,5231.97291,N,00606.07687,E,0.066,18.45,120224,,,A*5F
$GPGGA,151657.00,5231.97291,N,00606.07687,E,1,06,3.94,31.8,M,46.9,M,,*6B
$PGRMZ,343,F,2*3E
$PFLAA,0,-1,14,-76,2,B88965,283,,2,0.0,1*2D
$PFLAU,1,1,1,1,0,,0,,,*4E
$GPRMC,151658.00,A,5231.97284,N,00606.07675,E,0.026,14.05,120224,,,A*55
$GPGGA,151658.00,5231.97284,N,00606.07675,E,1,06,3.94,31.8,M,46.9,M,,*6D
$PGRMZ,344,F,2*39
$PFLAA,0,-1,12,-76,2,B88965,278,,1,0.2,1*2E
$PFLAU,1,1,1,1,0,,0,,,*4E
$GPRMC,151659.00,A,5231.97279,N,00606.07663,E,0.085,16.06,120224,,,A*59
$GPGGA,151659.00,5231.97279,N,00606.07663,E,1,06,3.94,31.8,M,46.9,M,,*69
$PGRMZ,343,F,2*3E
$PFLAA,0,-1,11,-75,2,B88965,270,,1,-0.2,1*0B
$PFLAU,1,1,1,1,0,,0,,,*4E
$GPRMC,151700.00,A,5231.97271,N,00606.07634,E,0.107,18.00,120224,,,A*5D
$GPGGA,151700.00,5231.97271,N,00606.07634,E,1,06,3.94,31.8,M,46.9,M,,*6E
$PGRMZ,344,F,2*39
