Selftest start

Startup: normal
o.k. 32 Mbit internal FLASH memory
o.k. Obstacles Init
o.k. Logging Init
o.k. RF subsystem
o.k. Pressure sensor
o.k. GPS configuration
o.k. Serial number
no SD Card detected
$PFLAE,A,0,0*33
HW LXN-Flarm-IGC, #0000003500, 0xDDD7E4, SW v7.22/1.23 Build 6076cde9d
$PFLAV,A,1.00,7.22,*0A
$GPRMC,,V,,,,,,,,,,N*53
$GPGGA,,,,,,0,00,99.99,,,,,,*48
$PFLAU,0,0,0,1,0,,0,,,*4F
$PFLAL,00022403@AurfpjYLih_c%*0B
$PGRMZ,-2,F,2*15
$GPRMC,,V,,,,,,,,,,N*53
$GPGGA,,,,,,0,00,99.99,,,,,,*48
$PFLAU,0,0,0,1,0,,0,,,*4F
$PFLAL,00032403@AurfpjYLbc#h]*05
$PGRMZ,-1,F,2*16
$GPGGA,,,,,,0,00,99.99,,,,,,*48
$PFLAU,0,0,0,1,0,,0,,,*4F
$PFLAL,00042403@AurfpjYL[Zead*74
$GPRMC,,V,,,,,,,,,,N*53
$GPGGA,,,,,,0,00,99.99,,,,,,*48
$PFLAU,0,0,0,1,0,,0,,,*4F
$PGRMZ,2,F,2*38
$GPRMC,,V,,,,,,,,,,N*53
$GPGGA,,,,,,0,00,99.99,,,,,,*48
$PFLAL,000451AZNSTAT 0 0*3C
$PFLAU,0,0,0,1,0,,0,,,*4F
$PGRMZ,0,F,2*3A
$PFLAU,0,0,0,1,0,,0,,,*4F
$PFLAL,00052403@AurfpjYLih_c%*0C
$PGRMZ,2,F,2*38
$GPRMC,,V,,,,,,,,,,N*53
$GPGGA,,,,,,0,00,99.99,,,,,,*48
$PFLAL,000541RFC 0 0 0 0 0*3C
$PFLAU,0,0,0,1,0,,0,,,*4F
$PFLAU,0,0,0,1,0,,0,,,*4F
$PGRMZ,-5,F,2*12
$GPRMC,,V,,,,,,,,,,N*53
$GPGGA,,,,,,0,00,99.99,,,,,,*48
$PFLAU,0,0,0,1,0,,0,,,*4F
$PGRMZ,-7,F,2*10
$GPRMC,150413.75,V,,,,,,,,,,N*7D
$GPGGA,150413.75,,,,,0,00,99.99,,,,,,*66
$PFLAU,0,0,0,1,0,,0,,,*4F
$PGRMZ,-5,F,2*12
$GPRMC,150414.75,V,,,,,,,,,,N*7A
$GPGGA,150414.75,,,,,0,00,99.99,,,,,,*61
$PFLAU,0,0,0,1,0,,0,,,*4F
$PGRMZ,-3,F,2*14
$GPRMC,150416.00,V,,,,,,,,,,N*7A
$GPGGA,150416.00,,,,,0,00,99.99,,,,,,*61
$PFLAU,0,0,0,1,0,,0,,,*4F
$PGRMZ,-5,F,2*12
$GPRMC,150417.00,V,,,,,,,,,,N*7B
$GPGGA,150417.00,,,,,0,00,99.99,,,,,,*60
$PFLAU,0,0,0,1,0,,0,,,*4F
$PGRMZ,-5,F,2*12
$GPRMC,150418.00,V,,,,,,,,,,N*74
$GPGGA,150418.00,,,,,0,00,99.99,,,,,,*6F
$PFLAU,0,0,0,1,0,,0,,,*4F
$PGRMZ,-4,F,2*13
$GPRMC,150419.00,V,,,,,,,130124,,,N*70
$GPGGA,150419.00,,,,,0,00,99.99,,,,,,*6E
$PFLAU,0,0,0,1,0,,0,,,*4F
$PGRMZ,-7,F,2*10
$GPRMC,150420.00,V,,,,,,,130124,,,N*7A
$GPGGA,150420.00,,,,,0,00,99.99,,,,,,*64
$PFLAU,0,0,0,1,0,,0,,,*4F
$PGRMZ,-6,F,2*11
$GPRMC,150421.00,V,,,,,,,130124,,,N*7B
$GPGGA,150421.00,,,,,0,00,99.99,,,,,,*65
$PFLAU,0,0,0,1,0,,0,,,*4F
$PGRMZ,-5,F,2*12
$GPRMC,150422.00,V,,,,,,,130124,,,N*78
$GPGGA,150422.00,,,,,0,00,99.99,,,,,,*66
$PFLAU,0,0,0,1,0,,0,,,*4F
$PGRMZ,-7,F,2*10
$GPRMC,150423.00,V,,,,,,,130124,,,N*79
$GPGGA,150423.00,,,,,0,00,99.99,,,,,,*67
$PFLAU,0,0,0,1,0,,0,,,*4F
$PGRMZ,-5,F,2*12
$GPRMC,150424.00,V,,,,,,,130124,,,N*7E
$GPGGA,150424.00,,,,,0,00,99.99,,,,,,*60
$PFLAU,0,0,0,1,0,,0,,,*4F
$PGRMZ,-5,F,2*12
$GPRMC,150425.00,V,,,,,,,130124,,,N*7F
$GPGGA,150425.00,,,,,0,00,99.99,,,,,,*61
$PFLAU,0,0,0,1,0,,0,,,*4F
$PGRMZ,-4,F,2*13
$GPRMC,150426.00,V,,,,,,,130124,,,N*7C
$GPGGA,150426.00,,,,,0,00,99.99,,,,,,*62
$PFLAU,0,0,0,1,0,,0,,,*4F
$GPRMC,150427.00,V,,,,,,,130124,,,N*7D
$PGRMZ,-5,F,2*12
$GPGGA,150427.00,,,,,0,00,99.99,,,,,,*63
$PFLAU,0,0,0,1,0,,0,,,*4F
$GPRMC,150428.00,V,,,,,,,130124,,,N*72
$GPGGA,150428.00,,,,,0,00,99.99,,,,,,*6C
$PGRMZ,-3,F,2*14
$PFLAU,0,0,0,1,0,,0,,,*4F
$GPRMC,150429.00,V,,,,,,,130124,,,N*73
$GPGGA,150429.00,,,,,0,00,99.99,,,,,,*6D
$PGRMZ,-4,F,2*13
$PFLAU,0,0,0,1,0,,0,,,*4F
$GPRMC,150430.00,V,,,,,,,130124,,,N*7B
$GPGGA,150430.00,,,,,0,00,99.99,,,,,,*65
$PGRMZ,-4,F,2*13
$GPRMC,150431.00,V,,,,,,,130124,,,N*7A
$PFLAU,0,0,0,1,0,,0,,,*4F
$GPGGA,150431.00,,,,,0,00,99.99,,,,,,*64
$PGRMZ,-5,F,2*12
$GPRMC,150432.00,V,,,,,,,130124,,,N*79
$GPGGA,150432.00,,,,,0,00,99.99,,,,,,*67
$PFLAU,0,0,0,1,0,,0,,,*4F
$PFLAL,15043303@AurfpjYLcb]i#*01
$PGRMZ,-3,F,2*14
$GPRMC,150433.00,V,,,,,,,130124,,,N*78
$GPGGA,150433.00,,,,,0,00,99.99,,,,,,*66
$PFLAU,0,0,0,1,0,,0,,,*4F
$PGRMZ,-1,F,2*16
$GPRMC,150434.00,V,,,,,,,130124,,,N*7F
$GPGGA,150434.00,,,,,0,00,99.99,,,,,,*61
$PFLAU,0,0,0,1,0,,0,,,*4F
$PGRMZ,-3,F,2*14
$GPRMC,150435.00,V,,,,,,,130124,,,N*7E
$GPGGA,150435.00,,,,,0,00,99.99,,,,,,*60
$PFLAU,0,0,0,1,0,,0,,,*4F
$PGRMZ,-5,F,2*12
$GPRMC,150436.00,V,,,,,,,130124,,,N*7D
$GPGGA,150436.00,,,,,0,00,99.99,,,,,,*63
$PFLAU,0,0,0,1,0,,0,,,*4F
$PGRMZ,-5,F,2*12
$GPRMC,150437.00,V,,,,,,,130124,,,N*7C
$GPGGA,150437.00,,,,,0,00,99.99,,,,,,*62
$PFLAU,0,0,0,1,0,,0,,,*4F
$PGRMZ,-4,F,2*13
$GPRMC,150438.00,V,,,,,,,130124,,,N*73
$GPGGA,150438.00,,,,,0,00,99.99,,,,,,*6D
$PFLAU,0,0,0,1,0,,0,,,*4F
$PGRMZ,-4,F,2*13
$GPRMC,150439.00,V,,,,,,,130124,,,N*72
$GPGGA,150439.00,,,,,0,00,99.99,,,,,,*6C
$PFLAU,0,0,0,1,0,,0,,,*4F
$PGRMZ,-4,F,2*13
$GPRMC,150440.00,V,,,,,,,130124,,,N*7C
$GPGGA,150440.00,,,,,0,00,99.99,,,,,,*62
$PFLAU,0,0,0,1,0,,0,,,*4F
$PGRMZ,-5,F,2*12
$GPRMC,150441.00,V,,,,,,,130124,,,N*7D
$GPGGA,150441.00,,,,,0,00,99.99,,,,,,*63
$PFLAU,0,0,0,1,0,,0,,,*4F
$PGRMZ,-5,F,2*12
$GPRMC,150442.00,V,,,,,,,130124,,,N*7E
$GPGGA,150442.00,,,,,0,00,99.99,,,,,,*60
$PFLAU,0,0,0,1,0,,0,,,*4F
$PGRMZ,-7,F,2*10
$GPRMC,150443.00,V,,,,,,,130124,,,N*7F
$GPGGA,150443.00,,,,,0,00,99.99,,,,,,*61
$PFLAU,0,0,0,1,0,,0,,,*4F
$PGRMZ,-5,F,2*12
$GPRMC,150444.00,V,,,,,,,130124,,,N*78
$GPGGA,150444.00,,,,,0,00,99.99,,,,,,*66
$PFLAU,0,0,0,1,0,,0,,,*4F
$PGRMZ,-6,F,2*11
$GPRMC,150445.00,V,,,,,,,130124,,,N*79
$GPGGA,150445.00,,,,,0,00,99.99,,,,,,*67
$PFLAU,0,0,0,1,0,,0,,,*4F
$PGRMZ,-7,F,2*10
$GPRMC,150446.00,V,,,,,,,130124,,,N*7A
$GPGGA,150446.00,,,,,0,00,99.99,,,,,,*64
$PFLAU,0,0,0,1,0,,0,,,*4F
$GPRMC,150447.00,V,,,,,,,130124,,,N*7B
$PGRMZ,-5,F,2*12
$GPGGA,150447.00,,,,,0,00,99.99,,,,,,*65
$PFLAU,0,0,0,1,0,,0,,,*4F
$GPRMC,150448.00,V,,,,,,,130124,,,N*74
$GPGGA,150448.00,,,,,0,00,99.99,,,,,,*6A
$PGRMZ,-4,F,2*13
$PFLAU,0,0,0,1,0,,0,,,*4F
$GPRMC,150449.00,V,,,,,,,130124,,,N*75
$GPGGA,150449.00,,,,,0,00,99.99,,,,,,*6B
$PGRMZ,-3,F,2*14
$PFLAU,0,0,0,1,0,,0,,,*4F
$GPRMC,150450.00,V,,,,,,,130124,,,N*7D
$GPGGA,150450.00,,,,,0,00,99.99,,,,,,*63
$PGRMZ,-4,F,2*13
$GPRMC,150451.00,V,,,,,,,130124,,,N*7C
$PFLAU,0,0,0,1,0,,0,,,*4F
$GPGGA,150451.00,,,,,0,00,99.99,,,,,,*62
$PGRMZ,-4,F,2*13
$GPRMC,150452.00,V,,,,,,,130124,,,N*7F
$GPGGA,150452.00,,,,,0,00,99.99,,,,,,*61
$PFLAU,0,0,0,1,0,,0,,,*4F
$PGRMZ,-5,F,2*12
$GPRMC,150453.00,V,,,,,,,130124,,,N*7E
$GPGGA,150453.00,,,,,0,00,99.99,,,,,,*60
$PFLAU,0,0,0,1,0,,0,,,*4F
$PGRMZ,-6,F,2*11
$GPRMC,150454.00,V,,,,,,,130124,,,N*79
$GPGGA,150454.00,,,,,0,00,99.99,,,,,,*67
$PFLAU,0,0,0,1,0,,0,,,*4F
$PGRMZ,-5,F,2*12
$GPRMC,150455.00,V,,,,,,,130124,,,N*78
$GPGGA,150455.00,,,,,0,00,99.99,,,,,,*66
$PFLAU,0,0,0,1,0,,0,,,*4F
$PGRMZ,-5,F,2*12
$GPRMC,150456.00,V,,,,,,,130124,,,N*7B
$GPGGA,150456.00,,,,,0,00,99.99,,,,,,*65
$PFLAU,0,0,0,1,0,,0,,,*4F
$PGRMZ,-5,F,2*12
$GPRMC,150457.00,V,,,,,,,130124,,,N*7A
$GPGGA,150457.00,,,,,0,00,99.99,,,,,,*64
$PFLAU,0,0,0,1,0,,0,,,*4F
$PGRMZ,-5,F,2*12
$GPRMC,150458.00,V,,,,,,,130124,,,N*75
$GPGGA,150458.00,,,,,0,00,99.99,,,,,,*6B
$PFLAU,0,0,0,1,0,,0,,,*4F
$PGRMZ,-6,F,2*11
$GPRMC,150459.00,V,,,,,,,130124,,,N*74
$GPGGA,150459.00,,,,,0,00,99.99,,,,,,*6A
$PFLAU,0,0,0,1,0,,0,,,*4F
$PGRMZ,-5,F,2*12
$GPRMC,150500.00,V,,,,,,,130124,,,N*79
$GPGGA,150500.00,,,,,0,00,99.99,,,,,,*67
$PFLAU,0,0,0,1,0,,0,,,*4F
$PGRMZ,-6,F,2*11
$GPRMC,150501.00,V,,,,,,,130124,,,N*78
$GPGGA,150501.00,,,,,0,00,99.99,,,,,,*66
$PFLAU,0,0,0,1,0,,0,,,*4F
$PGRMZ,-5,F,2*12
$GPRMC,150502.00,V,,,,,,,130124,,,N*7B
$GPGGA,150502.00,,,,,0,00,99.99,,,,,,*65
$PFLAU,0,0,0,1,0,,0,,,*4F
$PGRMZ,-6,F,2*11
$GPRMC,150503.00,V,,,,,,,130124,,,N*7A
$GPGGA,150503.00,,,,,0,00,99.99,,,,,,*64
$PFLAU,0,0,0,1,0,,0,,,*4F
$PGRMZ,-5,F,2*12
$GPRMC,150504.00,V,,,,,,,130124,,,N*7D
$GPGGA,150504.00,,,,,0,00,99.99,,,,,,*63
$PFLAU,0,0,0,1,0,,0,,,*4F
$PGRMZ,-7,F,2*10
$GPRMC,150505.00,V,,,,,,,130124,,,N*7C
$GPGGA,150505.00,,,,,0,00,99.99,,,,,,*62
$PFLAU,0,0,0,1,0,,0,,,*4F
$PGRMZ,-5,F,2*12
$GPRMC,150506.00,V,,,,,,,130124,,,N*7F
$GPGGA,150506.00,,,,,0,00,99.99,,,,,,*61
$PFLAU,0,0,0,1,0,,0,,,*4F
$GPRMC,150507.00,V,,,,,,,130124,,,N*7E
$GPGGA,150507.00,,,,,0,00,99.99,,,,,,*60
$PGRMZ,-6,F,2*11
$PFLAU,0,0,0,1,0,,0,,,*4F
$GPRMC,150508.00,V,,,,,,,130124,,,N*71
$GPGGA,150508.00,,,,,0,00,99.99,,,,,,*6F
$PGRMZ,-7,F,2*10
$PFLAU,0,0,0,1,0,,0,,,*4F
$GPRMC,150509.00,V,,,,,,,130124,,,N*70
$GPGGA,150509.00,,,,,0,00,99.99,,,,,,*6E
$PGRMZ,-7,F,2*10
$PFLAU,0,0,0,1,0,,0,,,*4F
$GPRMC,150510.00,V,,,,,,,130124,,,N*78
$GPGGA,150510.00,,,,,0,00,99.99,,,,,,*66
$PGRMZ,-7,F,2*10
$GPRMC,150511.00,V,,,,,,,130124,,,N*79
$GPGGA,150511.00,,,,,0,00,99.99,,,,,,*67
$PFLAU,0,0,0,1,0,,0,,,*4F
$PGRMZ,-6,F,2*11
$GPRMC,150512.00,V,,,,,,,130124,,,N*7A
$GPGGA,150512.00,,,,,0,00,99.99,,,,,,*64
$PFLAU,0,0,0,1,0,,0,,,*4F
$PGRMZ,-7,F,2*10
$GPRMC,150513.00,V,,,,,,,130124,,,N*7B
$GPGGA,150513.00,,,,,0,00,99.99,,,,,,*65
$PFLAU,0,0,0,1,0,,0,,,*4F
$PGRMZ,-5,F,2*12
$GPRMC,150514.00,V,,,,,,,130124,,,N*7C
$GPGGA,150514.00,,,,,0,00,99.99,,,,,,*62
$PFLAU,0,0,0,1,0,,0,,,*4F
$PGRMZ,-4,F,2*13
$GPRMC,150515.00,V,,,,,,,130124,,,N*7D
$GPGGA,150515.00,,,,,0,00,99.99,,,,,,*63
$PFLAU,0,0,0,1,0,,0,,,*4F
$PGRMZ,-5,F,2*12
$GPRMC,150516.00,V,,,,,,,130124,,,N*7E
$GPGGA,150516.00,,,,,0,00,99.99,,,,,,*60
$PFLAU,0,0,0,1,0,,0,,,*4F
$PGRMZ,-5,F,2*12
$GPRMC,150517.00,V,,,,,,,130124,,,N*7F
$GPGGA,150517.00,,,,,0,00,99.99,,,,,,*61
$PFLAU,0,0,0,1,0,,0,,,*4F
$PGRMZ,-5,F,2*12
$GPRMC,150518.00,V,,,,,,,130124,,,N*70
$GPGGA,150518.00,,,,,0,00,99.99,,,,,,*6E
$PFLAU,0,0,0,1,0,,0,,,*4F
$PGRMZ,-4,F,2*13
$GPRMC,150519.00,V,,,,,,,130124,,,N*71
$GPGGA,150519.00,,,,,0,00,99.99,,,,,,*6F
$PFLAU,0,0,0,1,0,,0,,,*4F
$PGRMZ,-5,F,2*12
$GPRMC,150520.00,V,,,,,,,130124,,,N*7B
$GPGGA,150520.00,,,,,0,00,99.99,,,,,,*65
$PFLAU,0,0,0,1,0,,0,,,*4F
$PGRMZ,-5,F,2*12
$GPRMC,150521.00,V,,,,,,,130124,,,N*7A
$GPGGA,150521.00,,,,,0,00,99.99,,,,,,*64
$PFLAU,0,0,0,1,0,,0,,,*4F
$PGRMZ,-7,F,2*10
$GPRMC,150522.00,V,,,,,,,130124,,,N*79
$GPGGA,150522.00,,,,,0,00,99.99,,,,,,*67
$PFLAU,0,0,0,1,0,,0,,,*4F
$PGRMZ,-7,F,2*10
$GPRMC,150523.00,V,,,,,,,130124,,,N*78
$GPGGA,150523.00,,,,,0,00,99.99,,,,,,*66
$PFLAU,0,0,0,1,0,,0,,,*4F
$PGRMZ,-8,F,2*1F
$GPRMC,150524.00,V,,,,,,,130124,,,N*7F
$GPGGA,150524.00,,,,,0,00,99.99,,,,,,*61
$PFLAU,0,0,0,1,0,,0,,,*4F
$PGRMZ,-10,F,2*26
$GPRMC,150525.00,V,,,,,,,130124,,,N*7E
$GPGGA,150525.00,,,,,0,00,99.99,,,,,,*60
$PFLAU,0,0,0,1,0,,0,,,*4F
$GPRMC,150526.00,V,,,,,,,130124,,,N*7D
$PGRMZ,-13,F,2*25
$GPGGA,150526.00,,,,,0,00,99.99,,,,,,*63
$PFLAU,0,0,0,1,0,,0,,,*4F
$GPRMC,150527.00,V,,,,,,,130124,,,N*7C
$GPGGA,150527.00,,,,,0,00,99.99,,,,,,*62
$PGRMZ,-11,F,2*27
$PFLAU,0,0,0,1,0,,0,,,*4F
$GPRMC,150528.00,V,,,,,,,130124,,,N*73
$GPGGA,150528.00,,,,,0,00,99.99,,,,,,*6D
$PGRMZ,-11,F,2*27
$PFLAU,0,0,0,1,0,,0,,,*4F
$GPRMC,150529.00,V,,,,,,,130124,,,N*72
$GPGGA,150529.00,,,,,0,00,99.99,,,,,,*6C
$PGRMZ,-11,F,2*27
$GPRMC,150530.00,V,,,,,,,130124,,,N*7A
$PFLAU,0,0,0,1,0,,0,,,*4F
$GPGGA,150530.00,,,,,0,00,99.99,,,,,,*64
$PGRMZ,-12,F,2*24
$GPRMC,150531.00,V,,,,,,,130124,,,N*7B
$PFLAU,0,0,0,1,0,,0,,,*4F
$GPGGA,150531.00,,,,,0,04,17.98,,,,,,*66
$GPGSA,A,1,29,31,32,26,,,,,,,,,24.58,17.98,16.76*36
$PGRMZ,-10,F,2*26
$GPRMC,150532.00,V,,,,,,,130124,,,N*78
$GPGGA,150532.00,,,,,0,04,18.00,,,,,,*6B
$PFLAU,0,0,0,1,0,,0,,,*4F
$PGRMZ,-9,F,2*1E
$PFLAU,0,0,0,1,0,,0,,,*4F
$GPRMC,150533.00,A,5231.96998,N,00606.01114,E,0.393,260.92,130124,,,A*6B
$PGRMZ,-7,F,2*10
$GPGGA,150533.00,5231.96998,N,00606.01114,E,1,04,18.01,114.2,M,46.9,M,,*6B
$PFLAU,0,1,1,1,0,,0,,,*4F
$GPRMC,150534.00,A,5231.97039,N,00606.01459,E,0.378,261.53,130124,,,A*6A
$PGRMZ,-9,F,2*1E
$GPGGA,150534.00,5231.97039,N,00606.01459,E,1,04,18.04,110.8,M,46.9,M,,*68
$PFLAU,0,1,1,1,0,,0,,,*4F
$PFLAL,15053503=<pohomVKxynro*64
$GPRMC,150535.00,A,5231.97063,N,00606.01696,E,0.109,257.03,130124,,,A*61
$GPGGA,150535.00,5231.97063,N,00606.01696,E,1,04,18.05,108.2,M,46.9,M,,*65
$PGRMZ,-11,F,2*27
$PFLAU,0,1,1,1,0,,0,,,*4F
$GPRMC,150536.00,A,5231.97066,N,00606.01775,E,0.395,248.54,130124,,,A*60
$GPGGA,150536.00,5231.97066,N,00606.01775,E,1,04,18.06,107.4,M,46.9,M,,*65
$PGRMZ,-9,F,2*1E
$PFLAU,0,1,1,1,0,,0,,,*4F
$GPRMC,150537.00,A,5231.97068,N,00606.01723,E,0.565,238.52,130124,,,A*64
$GPGGA,150537.00,5231.97068,N,00606.01723,E,1,04,18.08,108.0,M,46.9,M,,*6C
$PGRMZ,-8,F,2*1F
$PFLAU,0,1,1,1,0,,0,,,*4F
$GPRMC,150538.00,A,5231.97054,N,00606.01556,E,0.584,238.56,130124,,,A*6F
$GPGGA,150538.00,5231.97054,N,00606.01556,E,1,04,18.10,109.7,M,46.9,M,,*63
$PGRMZ,-8,F,2*1F
$PFLAU,0,1,1,1,0,,0,,,*4F
$GPRMC,150539.00,A,5231.97039,N,00606.01427,E,0.856,240.46,130124,,,A*6E
$GPGGA,150539.00,5231.97039,N,00606.01427,E,1,04,18.11,110.8,M,46.9,M,,*68
$PGRMZ,-7,F,2*10
$PFLAU,0,1,1,1,0,,0,,,*4F
$GPRMC,150540.00,A,5231.97030,N,00606.01344,E,0.886,241.32,130124,,,A*64
$GPGGA,150540.00,5231.97030,N,00606.01344,E,1,04,18.14,111.5,M,46.9,M,,*64
$PGRMZ,-7,F,2*10
$PFLAU,0,1,1,1,0,,0,,,*4F
$GPRMC,150541.00,A,5231.97025,N,00606.01216,E,0.293,242.14,130124,,,A*6E
$GPGGA,150541.00,5231.97025,N,00606.01216,E,1,04,18.15,112.6,M,46.9,M,,*66
$PGRMZ,-7,F,2*10
$PFLAU,0,1,1,1,0,,0,,,*4F
$GPRMC,150542.00,A,5231.97012,N,00606.00965,E,0.291,242.94,130124,,,A*6D
$GPGGA,150542.00,5231.97012,N,00606.00965,E,1,04,18.17,115.0,M,46.9,M,,*6C
$PGRMZ,-7,F,2*10
$PFLAU,0,1,1,1,0,,0,,,*4F
$GPRMC,150543.00,A,5231.96994,N,00606.00610,E,1.006,244.13,130124,,,A*63
$GPGGA,150543.00,5231.96994,N,00606.00610,E,1,04,18.19,118.4,M,46.9,M,,*61
$PGRMZ,-7,F,2*10
$PFLAU,0,1,1,1,0,,0,,,*4F
$GPRMC,150544.00,A,5231.96984,N,00606.00364,E,0.749,245.07,130124,,,A*6A
$GPGGA,150544.00,5231.96984,N,00606.00364,E,1,04,18.21,120.6,M,46.9,M,,*63
$PGRMZ,-7,F,2*10
$PFLAU,0,1,1,1,0,,0,,,*4F
$GPRMC,150545.00,A,5231.96971,N,00606.00115,E,0.585,245.88,130124,,,A*60
$GPGGA,150545.00,5231.96971,N,00606.00115,E,1,04,18.22,122.9,M,46.9,M,,*62
$PGRMZ,-7,F,2*10
$PFLAU,0,1,1,1,0,,0,,,*4F
$GPRMC,150546.00,A,5231.96957,N,00605.99862,E,0.453,246.59,130124,,,A*68
$GPGGA,150546.00,5231.96957,N,00605.99862,E,1,04,18.23,125.1,M,46.9,M,,*61
$PGRMZ,-7,F,2*10
$PFLAU,0,1,1,1,0,,0,,,*4F
$GPRMC,150547.00,A,5231.96947,N,00605.99647,E,0.421,247.18,130124,,,A*60
$GPGGA,150547.00,5231.96947,N,00605.99647,E,1,04,18.25,126.9,M,46.9,M,,*65
$PGRMZ,-5,F,2*12
$PFLAU,0,1,1,1,0,,0,,,*4F
$GPRMC,150548.00,A,5231.96936,N,00605.99417,E,0.487,247.81,130124,,,A*62
$GPGGA,150548.00,5231.96936,N,00605.99417,E,1,04,18.28,128.6,M,46.9,M,,*67
$PGRMZ,-7,F,2*10
$PFLAU,0,1,1,1,0,,0,,,*4F
$GPRMC,150549.00,A,5231.96923,N,00605.99171,E,0.442,248.41,130124,,,A*68
$GPGGA,150549.00,5231.96923,N,00605.99171,E,1,04,18.29,130.5,M,46.9,M,,*6C
$PGRMZ,-6,F,2*11
$PFLAU,0,1,1,1,0,,0,,,*4F
$GPRMC,150550.00,V,,,,,,,130124,,,N*7C
$GPGGA,150550.00,,,,,0,04,18.31,,,,,,*6D
$PGRMZ,-7,F,2*10
$PFLAU,0,0,0,1,0,,0,,,*4F
$GPRMC,150551.00,V,,,,,,,130124,,,N*7D
$GPGGA,150551.00,,,,,0,04,18.31,,,,,,*6C
$PGRMZ,-5,F,2*12
$PFLAU,0,0,0,1,0,,0,,,*4F
$GPRMC,150552.00,V,,,,,,,130124,,,N*7E
$GPGGA,150552.00,,,,,0,04,18.34,,,,,,*6A
$PGRMZ,-6,F,2*11
$PFLAU,0,0,0,1,0,,0,,,*4F
$GPRMC,150553.00,V,,,,,,,130124,,,N*7F
$GPGGA,150553.00,,,,,0,04,18.36,,,,,,*69
$PGRMZ,-7,F,2*10
$PFLAU,0,0,0,1,0,,0,,,*4F
$GPRMC,150554.00,V,,,,,,,130124,,,N*78
$GPGGA,150554.00,,,,,0,04,18.38,,,,,,*60
$PGRMZ,-9,F,2*1E
$PFLAU,0,0,0,1,0,,0,,,*4F
$GPRMC,150555.00,V,,,,,,,130124,,,N*79
$GPGGA,150555.00,,,,,0,04,18.38,,,,,,*61
$PGRMZ,-7,F,2*10
$PFLAU,0,0,0,1,0,,0,,,*4F
$GPRMC,150556.00,V,,,,,,,130124,,,N*7A
$GPGGA,150556.00,,,,,0,04,18.42,,,,,,*6F
$PGRMZ,-8,F,2*1F
$PFLAU,0,0,0,1,0,,0,,,*4F
$GPRMC,150557.00,V,,,,,,,130124,,,N*7B
$GPGGA,150557.00,,,,,0,04,18.43,,,,,,*6F
$PGRMZ,-8,F,2*1F
$PFLAU,0,0,0,1,0,,0,,,*4F
$GPRMC,150558.00,V,,,,,,,130124,,,N*74
$GPGGA,150558.00,,,,,0,04,18.44,,,,,,*67
$PGRMZ,-8,F,2*1F
$PFLAU,0,0,0,1,0,,0,,,*4F
$GPRMC,150559.00,V,,,,,,,130124,,,N*75
$GPGGA,150559.00,,,,,0,04,18.46,,,,,,*64
$PGRMZ,-8,F,2*1F
$PFLAU,0,0,0,1,0,,0,,,*4F
$GPRMC,150600.00,V,,,,,,,130124,,,N*7A
$GPGGA,150600.00,,,,,0,04,18.47,,,,,,*6A
$PGRMZ,-6,F,2*11
$PFLAU,0,0,0,1,0,,0,,,*4F
$GPRMC,150601.00,A,5231.97070,N,00606.00445,E,0.093,251.21,130124,,,A*6E
$GPGGA,150601.00,5231.97070,N,00606.00445,E,1,05,6.67,108.7,M,46.9,M,,*51
$PGRMZ,-6,F,2*11
$GPGSA,A,3,29,31,32,26,28,,,,,,,,8.58,6.67,5.40*07
$PFLAU,0,1,1,1,0,,0,,,*4F
$GPRMC,150602.00,A,5231.97186,N,00606.01716,E,0.041,246.58,130124,,,A*66
$GPGGA,150602.00,5231.97186,N,00606.01716,E,1,05,6.68,94.4,M,46.9,M,,*66
$PGRMZ,-8,F,2*1F
$PFLAU,0,1,1,1,0,,0,,,*4F
$GPRMC,150603.00,A,5231.97256,N,00606.02456,E,0.070,242.06,130124,,,A*60
$GPGGA,150603.00,5231.97256,N,00606.02456,E,1,05,6.68,85.9,M,46.9,M,,*60
$PGRMZ,-5,F,2*12
$PFLAU,0,1,1,1,0,,0,,,*4F
$GPRMC,150604.00,A,5231.97305,N,00606.02946,E,0.044,237.90,130124,,,A*66
$GPGGA,150604.00,5231.97305,N,00606.02946,E,1,05,6.68,80.3,M,46.9,M,,*63
$PGRMZ,-5,F,2*12
$PFLAU,0,1,1,1,0,,0,,,*4F
$GPRMC,150605.00,A,5231.97342,N,00606.03347,E,0.246,228.67,130124,,,A*68
$GPGGA,150605.00,5231.97342,N,00606.03347,E,1,05,6.68,75.8,M,46.9,M,,*6A
$PGRMZ,-7,F,2*10
$PFLAU,0,1,1,1,0,,0,,,*4F
$GPRMC,150606.00,A,5231.97374,N,00606.03699,E,0.330,219.87,130124,,,A*64
$GPGGA,150606.00,5231.97374,N,00606.03699,E,1,05,6.68,71.9,M,46.9,M,,*6F
$PGRMZ,-7,F,2*10
$PFLAU,0,1,1,1,0,,0,,,*4F
$GPRMC,150607.00,A,5231.97383,N,00606.03687,E,0.241,211.86,130124,,,A*6C
$GPGGA,150607.00,5231.97383,N,00606.03687,E,1,05,6.68,71.4,M,46.9,M,,*64
$PGRMZ,-7,F,2*10
$PFLAU,0,1,1,1,0,,0,,,*4F
$GPRMC,150608.00,A,5231.97394,N,00606.03743,E,0.333,204.13,130124,,,A*60
$GPGGA,150608.00,5231.97394,N,00606.03743,E,1,05,6.69,70.3,M,46.9,M,,*63
$PGRMZ,-7,F,2*10
$PFLAU,0,1,1,1,0,,0,,,*4F
$GPRMC,150609.00,A,5231.97407,N,00606.03814,E,0.283,196.83,130124,,,A*6A
$GPGGA,150609.00,5231.97407,N,00606.03814,E,1,05,6.68,69.0,M,46.9,M,,*68
$PGRMZ,-7,F,2*10
$PFLAU,0,1,1,1,0,,0,,,*4F
$GPRMC,150610.00,A,5231.97419,N,00606.03904,E,0.432,190.13,130124,,,A*6E
$GPGGA,150610.00,5231.97419,N,00606.03904,E,1,05,6.68,67.4,M,46.9,M,,*65
$PGRMZ,-8,F,2*1F
$PFLAU,0,1,1,1,0,,0,,,*4F
$GPRMC,150611.00,A,5231.97431,N,00606.04010,E,0.406,183.67,130124,,,A*68
$GPGGA,150611.00,5231.97431,N,00606.04010,E,1,05,6.69,65.7,M,46.9,M,,*65
$PGRMZ,-9,F,2*1E
$PFLAU,0,1,1,1,0,,0,,,*4F
$GPRMC,150612.00,A,5231.97443,N,00606.04127,E,0.481,177.62,130124,,,A*6A
$GPGGA,150612.00,5231.97443,N,00606.04127,E,1,05,6.69,63.9,M,46.9,M,,*6E
$PGRMZ,-9,F,2*1E
$PFLAU,0,1,1,1,0,,0,,,*4F
$GPRMC,150613.00,A,5231.97456,N,00606.04252,E,0.418,171.94,130124,,,A*61
$GPGGA,150613.00,5231.97456,N,00606.04252,E,1,05,6.69,62.0,M,46.9,M,,*62
$PGRMZ,-11,F,2*27
$PFLAU,0,1,1,1,0,,0,,,*4F
$GPRMC,150614.00,A,5231.97468,N,00606.04382,E,0.562,166.56,130124,,,A*63
$GPGGA,150614.00,5231.97468,N,00606.04382,E,1,05,6.69,60.0,M,46.9,M,,*66
$PGRMZ,-9,F,2*1E
$PFLAU,0,1,1,1,0,,0,,,*4F
$GPRMC,150615.00,A,5231.97480,N,00606.04529,E,0.552,161.62,130124,,,A*60
$GPGGA,150615.00,5231.97480,N,00606.04529,E,1,05,6.68,58.0,M,46.9,M,,*6C
$PGRMZ,-9,F,2*1E
$PFLAU,0,1,1,1,0,,0,,,*4F
$GPRMC,150616.00,A,5231.97490,N,00606.04674,E,0.413,156.88,130124,,,A*6D
$GPGGA,150616.00,5231.97490,N,00606.04674,E,1,05,6.69,55.9,M,46.9,M,,*60
$PGRMZ,-7,F,2*10
$PFLAU,0,1,1,1,0,,0,,,*4F
$GPRMC,150617.00,A,5231.97499,N,00606.04824,E,0.481,152.52,130124,,,A*66
$GPGGA,150617.00,5231.97499,N,00606.04824,E,1,05,6.69,53.9,M,46.9,M,,*65
$PGRMZ,-7,F,2*10
$PFLAU,0,1,1,1,0,,0,,,*4F
$GPRMC,150618.00,A,5231.97508,N,00606.04978,E,0.499,148.41,130124,,,A*68
$GPGGA,150618.00,5231.97508,N,00606.04978,E,1,05,6.70,51.9,M,46.9,M,,*61
$PGRMZ,-6,F,2*11
$PFLAU,0,1,1,1,0,,0,,,*4F
$GPRMC,150619.00,A,5231.97515,N,00606.05129,E,0.517,144.52,130124,,,A*61
$GPGGA,150619.00,5231.97515,N,00606.05129,E,1,05,6.69,49.9,M,46.9,M,,*60
$PGRMZ,-7,F,2*10
$PFLAU,0,1,1,1,0,,0,,,*4F
$GPRMC,150620.00,A,5231.97520,N,00606.05272,E,0.542,140.90,130124,,,A*6A
$GPGGA,150620.00,5231.97520,N,00606.05272,E,1,05,6.69,48.0,M,46.9,M,,*69
$PGRMZ,-7,F,2*10
$PFLAU,0,1,1,1,0,,0,,,*4F
$GPRMC,150621.00,A,5231.97525,N,00606.05420,E,0.557,137.44,130124,,,A*62
$GPGGA,150621.00,5231.97525,N,00606.05420,E,1,05,6.69,46.0,M,46.9,M,,*62
$PGRMZ,-7,F,2*10
$PFLAU,0,1,1,1,0,,0,,,*4F
$GPRMC,150622.00,A,5231.97530,N,00606.05561,E,0.506,134.28,130124,,,A*6C
$GPGGA,150622.00,5231.97530,N,00606.05561,E,1,05,6.70,44.2,M,46.9,M,,*69
$PGRMZ,-7,F,2*10
$PFLAU,0,1,1,1,0,,0,,,*4F
$GPRMC,150623.00,A,5231.97534,N,00606.05690,E,0.577,131.21,130124,,,A*6E
$GPGGA,150623.00,5231.97534,N,00606.05690,E,1,05,6.70,42.4,M,46.9,M,,*61
$PGRMZ,-7,F,2*10
$PFLAU,0,1,1,1,0,,0,,,*4F
$GPRMC,150624.00,A,5231.97538,N,00606.05837,E,0.647,128.37,130124,,,A*69
$GPGGA,150624.00,5231.97538,N,00606.05837,E,1,05,6.70,40.6,M,46.9,M,,*69
$PGRMZ,-7,F,2*10
$PFLAU,0,1,1,1,0,,0,,,*4F
$GPRMC,150625.00,A,5231.97543,N,00606.05976,E,0.458,125.65,130124,,,A*66
$GPGGA,150625.00,5231.97543,N,00606.05976,E,1,05,6.70,38.9,M,46.9,M,,*60
$PGRMZ,-7,F,2*10
$PFLAU,0,1,1,1,0,,0,,,*4F
$GPRMC,150626.00,A,5231.97549,N,00606.06109,E,0.296,123.13,130124,,,A*6F
$GPGGA,150626.00,5231.97549,N,00606.06109,E,1,05,6.70,37.2,M,46.9,M,,*6E
$PGRMZ,-7,F,2*10
$PFLAU,0,1,1,1,0,,0,,,*4F
$GPRMC,150627.00,A,5231.97555,N,00606.06236,E,0.362,120.68,130124,,,A*69
$GPGGA,150627.00,5231.97555,N,00606.06236,E,1,05,6.70,35.6,M,46.9,M,,*6B
$PGRMZ,-6,F,2*11
$PFLAU,0,1,1,1,0,,0,,,*4F
$GPRMC,150628.00,A,5231.97561,N,00606.06455,E,0.294,118.50,130124,,,A*6A
$GPGGA,150628.00,5231.97561,N,00606.06455,E,1,05,6.70,33.5,M,46.9,M,,*65
$PGRMZ,-6,F,2*11
$PFLAU,0,1,1,1,0,,0,,,*4F
$GPRMC,150629.00,A,5231.97568,N,00606.06666,E,0.269,116.38,130124,,,A*62
$GPGGA,150629.00,5231.97568,N,00606.06666,E,1,05,6.71,31.5,M,46.9,M,,*6C
$PGRMZ,-5,F,2*12
$PFLAU,0,1,1,1,0,,0,,,*4F
$GPRMC,150630.00,A,5231.97574,N,00606.06851,E,0.344,114.36,130124,,,A*6F
$GPGGA,150630.00,5231.97574,N,00606.06851,E,1,05,6.71,29.6,M,46.9,M,,*69
$PGRMZ,-4,F,2*13
$PFLAU,0,1,1,1,0,,0,,,*4F
$GPRMC,150631.00,A,5231.97576,N,00606.06999,E,0.040,108.85,130124,,,A*6B
$GPGGA,150631.00,5231.97576,N,00606.06999,E,1,05,6.70,28.0,M,46.9,M,,*69
$PGRMZ,-5,F,2*12
$PFLAU,0,1,1,1,0,,0,,,*4F
$GPRMC,150632.00,A,5231.97581,N,00606.07169,E,0.113,108.19,130124,,,A*64
$GPGGA,150632.00,5231.97581,N,00606.07169,E,1,05,6.71,26.3,M,46.9,M,,*68
$PGRMZ,-5,F,2*12
$PFLAU,0,1,1,1,0,,0,,,*4F
$GPRMC,150633.00,A,5231.97587,N,00606.07322,E,0.039,107.64,130124,,,A*62
$GPGGA,150633.00,5231.97587,N,00606.07322,E,1,05,6.71,24.7,M,46.9,M,,*64
$PGRMZ,-6,F,2*11
$PFLAU,0,1,1,1,0,,0,,,*4F
$GPRMC,150634.00,A,5231.97593,N,00606.07462,E,0.203,106.19,130124,,,A*63
$GPGGA,150634.00,5231.97593,N,00606.07462,E,1,05,6.71,23.2,M,46.9,M,,*67
$PGRMZ,-5,F,2*12
$PFLAU,0,1,1,1,0,,0,,,*4F
$PFLAL,15063503_%kl@=?HA`afZg*10
$GPRMC,150635.00,A,5231.97599,N,00606.07596,E,0.220,104.83,130124,,,A*62
$GPGGA,150635.00,5231.97599,N,00606.07596,E,1,05,6.71,21.8,M,46.9,M,,*6E
$PGRMZ,-6,F,2*11
$PFLAU,0,1,1,1,0,,0,,,*4F
$GPRMC,150636.00,A,5231.97606,N,00606.07719,E,0.257,103.48,130124,,,A*61
$GPGGA,150636.00,5231.97606,N,00606.07719,E,1,05,6.71,20.6,M,46.9,M,,*62
$PGRMZ,-7,F,2*10
$PFLAU,0,1,1,1,0,,0,,,*4F
$GPRMC,150637.00,A,5231.97612,N,00606.07823,E,0.229,102.11,130124,,,A*67
$GPGGA,150637.00,5231.97612,N,00606.07823,E,1,05,6.71,19.4,M,46.9,M,,*68
$PGRMZ,-7,F,2*10
$PFLAU,0,1,1,1,0,,0,,,*4F
$GPRMC,150638.00,A,5231.97618,N,00606.07927,E,0.050,101.69,130124,,,A*67
$GPGGA,150638.00,5231.97618,N,00606.07927,E,1,05,6.71,18.3,M,46.9,M,,*6E
$PGRMZ,-7,F,2*10
$PFLAU,0,1,1,1,0,,0,,,*4F
$GPRMC,150639.00,A,5231.97623,N,00606.07999,E,0.021,106.21,130124,,,A*66
$GPGGA,150639.00,5231.97623,N,00606.07999,E,1,05,6.71,17.4,M,46.9,M,,*6A
$PGRMZ,-7,F,2*10
$PFLAU,0,1,1,1,0,,0,,,*4F
$GPRMC,150640.00,A,5231.97626,N,00606.08115,E,0.094,105.64,130124,,,A*62
$GPGGA,150640.00,5231.97626,N,00606.08115,E,1,05,6.71,16.2,M,46.9,M,,*65
$PGRMZ,-6,F,2*11
$PFLAU,0,1,1,1,0,,0,,,*4F
$GPRMC,150641.00,A,5231.97630,N,00606.08193,E,0.127,104.97,130124,,,A*6E
$GPGGA,150641.00,5231.97630,N,00606.08193,E,1,05,6.72,15.3,M,46.9,M,,*6C
$PGRMZ,-7,F,2*10
$PFLAU,0,1,1,1,0,,0,,,*4F
$GPRMC,150642.00,A,5231.97632,N,00606.08247,E,0.079,104.24,130124,,,A*67
$GPGGA,150642.00,5231.97632,N,00606.08247,E,1,05,6.71,14.5,M,46.9,M,,*63
$PGRMZ,-6,F,2*11
$PFLAU,0,1,1,1,0,,0,,,*4F
$GPRMC,150643.00,A,5231.97632,N,00606.08322,E,0.119,103.66,130124,,,A*62
$GPGGA,150643.00,5231.97632,N,00606.08322,E,1,05,6.71,13.7,M,46.9,M,,*65
$PGRMZ,-7,F,2*10
$PFLAU,0,1,1,1,0,,0,,,*4F
$GPRMC,150644.00,A,5231.97632,N,00606.08359,E,0.263,102.36,130124,,,A*63
$GPGGA,150644.00,5231.97632,N,00606.08359,E,1,05,6.72,13.0,M,46.9,M,,*6A
$PGRMZ,-9,F,2*1E
$PFLAU,0,1,1,1,0,,0,,,*4F
$GPRMC,150645.00,A,5231.97631,N,00606.08404,E,0.159,101.72,130124,,,A*67
$GPGGA,150645.00,5231.97631,N,00606.08404,E,1,05,6.72,12.4,M,46.9,M,,*62
$PGRMZ,-9,F,2*1E
$PFLAU,0,1,1,1,0,,0,,,*4F
$GPRMC,150646.00,A,5231.97631,N,00606.08441,E,0.222,100.63,130124,,,A*6B
$GPGGA,150646.00,5231.97631,N,00606.08441,E,1,05,6.72,11.8,M,46.9,M,,*6F
$PGRMZ,-7,F,2*10
$PFLAU,0,1,1,1,0,,0,,,*4F
$GPRMC,150647.00,A,5231.97632,N,00606.08471,E,0.185,100.07,130124,,,A*66
$GPGGA,150647.00,5231.97632,N,00606.08471,E,1,05,6.72,11.3,M,46.9,M,,*65
$PGRMZ,-7,F,2*10
$PFLAU,0,1,1,1,0,,0,,,*4F
$GPRMC,150648.00,A,5231.97632,N,00606.08491,E,0.138,99.61,130124,,,A*50
$GPGGA,150648.00,5231.97632,N,00606.08491,E,1,05,6.73,10.9,M,46.9,M,,*6E
$PGRMZ,-7,F,2*10
$PFLAU,0,1,1,1,0,,0,,,*4F
$GPRMC,150649.00,A,5231.97634,N,00606.08508,E,0.152,99.06,130124,,,A*5B
$GPGGA,150649.00,5231.97634,N,00606.08508,E,1,05,6.72,10.6,M,46.9,M,,*66
$PGRMZ,-9,F,2*1E
$PFLAU,0,1,1,1,0,,0,,,*4F
$GPRMC,150650.00,A,5231.97637,N,00606.08516,E,0.208,97.52,130124,,,A*5C
$GPGGA,150650.00,5231.97637,N,00606.08516,E,1,05,6.72,10.3,M,46.9,M,,*67
$PGRMZ,-9,F,2*1E
$PFLAU,0,1,1,1,0,,0,,,*4F
$GPRMC,150651.00,A,5231.97641,N,00606.08482,E,0.121,97.17,130124,,,A*59
$GPGGA,150651.00,5231.97641,N,00606.08482,E,1,05,6.72,10.5,M,46.9,M,,*6D
$PGRMZ,-13,F,2*25
$PFLAU,0,1,1,1,0,,0,,,*4F
$GPRMC,150652.00,A,5231.97645,N,00606.08459,E,0.132,96.47,130124,,,A*5E
$GPGGA,150652.00,5231.97645,N,00606.08459,E,1,05,6.73,10.5,M,46.9,M,,*6D
$PGRMZ,-15,F,2*23
$PFLAU,0,1,1,1,0,,0,,,*4F
$GPRMC,150653.00,A,5231.97648,N,00606.08434,E,0.053,96.55,130124,,,A*5C
$GPGGA,150653.00,5231.97648,N,00606.08434,E,1,05,6.73,10.5,M,46.9,M,,*6A
$PGRMZ,-15,F,2*23
$PFLAU,0,1,1,1,0,,0,,,*4F
$GPRMC,150654.00,A,5231.97651,N,00606.08405,E,0.134,96.67,130124,,,A*50
$GPGGA,150654.00,5231.97651,N,00606.08405,E,1,05,6.73,10.4,M,46.9,M,,*66
$PGRMZ,-15,F,2*23
$PFLAU,0,1,1,1,0,,0,,,*4F
$GPRMC,150655.00,A,5231.97655,N,00606.08371,E,0.298,94.93,130124,,,A*5D
$GPGGA,150655.00,5231.97655,N,00606.08371,E,1,05,6.73,10.6,M,46.9,M,,*65
$PGRMZ,-15,F,2*23
$PFLAU,0,1,1,1,0,,0,,,*4F
$GPRMC,150656.00,A,5231.97662,N,00606.08335,E,0.509,89.18,130124,,,A*5A
$GPGGA,150656.00,5231.97662,N,00606.08335,E,1,05,6.73,10.8,M,46.9,M,,*6C
$PGRMZ,-14,F,2*22
$PFLAU,0,1,1,1,0,,0,,,*4F
$GPRMC,150657.00,V,,,,,,,130124,,,N*78
$GPGGA,150657.00,,,,,0,03,91.34,,,,,,*6A
$GPGSA,A,1,32,26,28,,,,,,,,,,99.99,91.34,55.45*31
$PGRMZ,-11,F,2*27
$PFLAU,0,0,0,1,0,,0,,,*4F
$GPRMC,150658.00,V,,,,,,,130124,,,N*77
$GPGGA,150658.00,,,,,0,00,99.99,,,,,,*69
$GPGSA,A,1,,,,,,,,,,,,,99.99,99.99,99.99*30
$PGRMZ,-5,F,2*12
$PFLAU,0,0,0,1,0,,0,,,*4F
$GPRMC,150659.00,V,,,,,,,130124,,,N*76
$GPGGA,150659.00,,,,,0,03,79.68,,,,,,*6B
$GPGSA,A,1,29,32,26,,,,,,,,,,99.99,79.68,78.30*32
$PGRMZ,-3,F,2*14
$GPRMC,150700.00,V,,,,,,,130124,,,N*7B
$PFLAU,0,0,0,1,0,,0,,,*4F
$GPGGA,150700.00,,,,,0,04,19.54,,,,,,*68
$GPGSA,A,1,29,31,32,26,,,,,,,,,26.65,19.54,18.13*39
$PGRMZ,-1,F,2*16
$GPRMC,150701.00,V,,,,,,,130124,,,N*7A
$GPGGA,150701.00,,,,,0,03,99.99,,,,,,*67
$PFLAU,0,0,0,1,0,,0,,,*4F
$GPGSA,A,1,29,31,28,,,,,,,,,,99.99,99.99,38.09*31
$PGRMZ,-1,F,2*16
$PFLAU,0,0,0,1,0,,0,,,*4F
$GPRMC,150702.00,V,,,,,,,130124,,,N*79
$GPGGA,150702.00,,,,,0,00,99.99,,,,,,*67
$GPGSA,A,1,,,,,,,,,,,,,99.99,99.99,99.99*30
$PGRMZ,1,F,2*3B
$PFLAU,0,0,0,1,0,,0,,,*4F
$GPRMC,150703.00,V,,,,,,,130124,,,N*78
$GPGGA,150703.00,,,,,0,03,99.99,,,,,,*65
$GPGSA,A,1,29,31,28,,,,,,,,,,99.99,99.99,38.22*38
$PGRMZ,0,F,2*3A
$GPRMC,150704.00,V,,,,,,,130124,,,N*7F
$PFLAU,0,0,0,1,0,,0,,,*4F
$GPGGA,150704.00,,,,,0,03,99.99,,,,,,*62
$PGRMZ,0,F,2*3A
$GPRMC,150705.00,A,5231.97586,N,00606.08663,E,0.988,81.99,130124,,,A*56
$PFLAU,0,0,0,1,0,,0,,,*4F
$GPGGA,150705.00,5231.97586,N,00606.08663,E,1,04,7.08,9.7,M,46.9,M,,*5F
$GPGSA,A,3,29,31,32,28,,,,,,,,,9.47,7.08,6.29*08
$PGRMZ,0,F,2*3A
$GPRMC,150706.00,V,,,,,,,130124,,,N*7D
$GPGGA,150706.00,,,,,0,03,76.10,,,,,,*60
$GPGSA,A,1,29,32,28,,,,,,,,,,99.99,76.10,74.44*33
$PFLAU,0,0,0,1,0,,0,,,*4F
$PGRMZ,0,F,2*3A
$GPRMC,150707.00,V,,,,,,,130124,,,N*7C
$GPGGA,150707.00,,,,,0,03,76.10,,,,,,*61
$PFLAU,0,0,0,1,0,,0,,,*4F
$PGRMZ,0,F,2*3A
$GPRMC,150708.00,V,,,,,,,130124,,,N*73
$GPGGA,150708.00,,,,,0,03,76.11,,,,,,*6F
$PFLAU,0,0,0,1,0,,0,,,*4F
$PGRMZ,0,F,2*3A
$GPRMC,150709.00,V,,,,,,,130124,,,N*72
$GPGGA,150709.00,,,,,0,03,76.11,,,,,,*6E
$PFLAU,0,0,0,1,0,,0,,,*4F
$PGRMZ,1,F,2*3B
$GPRMC,150710.00,V,,,,,,,130124,,,N*7A
$GPGGA,150710.00,,,,,0,03,76.12,,,,,,*65
$PFLAU,0,0,0,1,0,,0,,,*4F
$PGRMZ,1,F,2*3B
$GPRMC,150711.00,V,,,,,,,130124,,,N*7B
$GPGGA,150711.00,,,,,0,03,76.12,,,,,,*64
$PFLAU,0,0,0,1,0,,0,,,*4F
$PGRMZ,0,F,2*3A
$GPRMC,150712.00,V,,,,,,,130124,,,N*78
$GPGGA,150712.00,,,,,0,03,76.13,,,,,,*66
$PFLAU,0,0,0,1,0,,0,,,*4F
$PGRMZ,1,F,2*3B
$GPRMC,150713.00,V,,,,,,,130124,,,N*79
$GPGGA,150713.00,,,,,0,03,76.13,,,,,,*67
$PFLAU,0,0,0,1,0,,0,,,*4F
$PGRMZ,1,F,2*3B
$GPRMC,150714.00,A,5231.97866,N,00606.08657,E,1.270,50.56,130124,,,A*50
$GPGGA,150714.00,5231.97866,N,00606.08657,E,1,04,7.09,8.4,M,46.9,M,,*58
$GPGSA,A,3,29,31,32,28,,,,,,,,,9.48,7.09,6.29*06
$PFLAU,0,0,0,1,0,,0,,,*4F
$PGRMZ,1,F,2*3B
$GPRMC,150715.00,A,5231.97962,N,00606.08622,E,1.792,50.07,130124,,,A*5B
$PFLAU,0,0,0,1,0,,0,,,*4F
$GPGGA,150715.00,5231.97962,N,00606.08622,E,1,04,7.09,8.2,M,46.9,M,,*58
$PGRMZ,1,F,2*3B
$PFLAU,0,1,1,1,0,,0,,,*4F
$GPRMC,150716.00,V,,,,,,,130124,,,N*7C
$GPGGA,150716.00,,,,,0,03,76.14,,,,,,*65
$GPGSA,A,1,29,32,28,,,,,,,,,,99.99,76.14,74.40*33
$PGRMZ,1,F,2*3B
$PFLAU,0,0,0,1,0,,0,,,*4F
$GPRMC,150717.00,A,5231.98046,N,00606.08671,E,2.399,83.18,130124,,,A*53
$GPGGA,150717.00,5231.98046,N,00606.08671,E,1,04,7.09,7.8,M,46.9,M,,*59
$GPGSA,A,3,29,31,32,28,,,,,,,,,9.48,7.09,6.29*06
$PGRMZ,1,F,2*3B
$PFLAL,150718AZNSTAT 0 0*36
$PFLAU,0,0,0,1,0,,0,,,*4F
$GPRMC,150718.00,A,5231.98083,N,00606.08645,E,1.952,61.03,130124,,,A*5A
$GPGGA,150718.00,5231.98083,N,00606.08645,E,1,04,7.09,7.6,M,46.9,M,,*56
$PGRMZ,2,F,2*38
$GPRMC,150719.00,A,5231.98131,N,00606.08514,E,0.829,58.91,130124,,,A*59
$PFLAU,0,0,0,1,0,,0,,,*4F
$GPGGA,150719.00,5231.98131,N,00606.08514,E,1,04,7.09,7.3,M,46.9,M,,*5D
$PGRMZ,2,F,2*38
$PFLAU,0,1,1,1,0,,0,,,*4F
$GPRMC,150720.00,A,5231.98163,N,00606.08393,E,1.816,56.15,130124,,,A*52
$GPGGA,150720.00,5231.98163,N,00606.08393,E,1,04,7.09,6.8,M,46.9,M,,*53
$PGRMZ,0,F,2*3A
$PFLAU,0,1,1,1,0,,0,,,*4F
$GPRMC,150721.00,A,5231.98185,N,00606.08267,E,1.342,51.90,130124,,,A*51
$GPGGA,150721.00,5231.98185,N,00606.08267,E,1,04,7.09,6.1,M,46.9,M,,*59
$PGRMZ,0,F,2*3A
$PFLAU,0,1,1,1,0,,0,,,*4F
$GPRMC,150722.00,A,5231.98225,N,00606.08160,E,1.312,49.36,130124,,,A*5F
$GPGGA,150722.00,5231.98225,N,00606.08160,E,1,04,7.09,5.2,M,46.9,M,,*57
$PGRMZ,0,F,2*3A
$PFLAU,0,1,1,1,0,,0,,,*4F
$GPRMC,150723.00,A,5231.98259,N,00606.08090,E,1.317,46.33,130124,,,A*54
$GPGGA,150723.00,5231.98259,N,00606.08090,E,1,04,7.09,4.3,M,46.9,M,,*53
$PGRMZ,1,F,2*3B
$PFLAU,0,1,1,1,0,,0,,,*4F
$GPRMC,150724.00,A,5231.98276,N,00606.08090,E,0.933,45.47,130124,,,A*53
$GPGGA,150724.00,5231.98276,N,00606.08090,E,1,04,7.09,4.2,M,46.9,M,,*58
$PGRMZ,-1,F,2*16
$PFLAU,0,1,1,1,0,,0,,,*4F
$GPRMC,150725.00,A,5231.98252,N,00606.08142,E,1.134,48.85,130124,,,A*57
$GPGGA,150725.00,5231.98252,N,00606.08142,E,1,04,7.09,4.0,M,46.9,M,,*53
$PGRMZ,0,F,2*3A
$PFLAU,0,1,1,1,0,,0,,,*4F
$GPRMC,150726.00,A,5231.98190,N,00606.08204,E,1.870,53.83,130124,,,A*5D
$GPGGA,150726.00,5231.98190,N,00606.08204,E,1,04,7.10,3.5,M,46.9,M,,*56
$PGRMZ,0,F,2*3A
$PFLAU,0,1,1,1,0,,0,,,*4F
$GPRMC,150727.00,A,5231.98135,N,00606.08254,E,1.748,57.54,130124,,,A*5C
$GPGGA,150727.00,5231.98135,N,00606.08254,E,1,04,7.10,3.1,M,46.9,M,,*59
$PGRMZ,-1,F,2*16
$PFLAU,0,1,1,1,0,,0,,,*4F
$GPRMC,150728.00,A,5231.98106,N,00606.08303,E,1.291,57.79,130124,,,A*5E
$GPGGA,150728.00,5231.98106,N,00606.08303,E,1,04,7.09,3.0,M,46.9,M,,*5C
$PGRMZ,0,F,2*3A
$PFLAU,0,1,1,1,0,,0,,,*4F
$GPRMC,150729.00,A,5231.98063,N,00606.08289,E,1.754,59.05,130124,,,A*57
$GPGGA,150729.00,5231.98063,N,00606.08289,E,1,04,7.10,2.7,M,46.9,M,,*52
$PGRMZ,-1,F,2*16
$PFLAU,0,1,1,1,0,,0,,,*4F
$GPRMC,150730.00,A,5231.98009,N,00606.08302,E,1.132,62.10,130124,,,A*5B
$GPGGA,150730.00,5231.98009,N,00606.08302,E,1,04,7.09,2.7,M,46.9,M,,*5C
$PGRMZ,-1,F,2*16
$PFLAU,0,1,1,1,0,,0,,,*4F
$GPRMC,150731.00,A,5231.97955,N,00606.08262,E,1.120,64.62,130124,,,A*52
$GPGGA,150731.00,5231.97955,N,00606.08262,E,1,04,7.10,2.5,M,46.9,M,,*5F
$PGRMZ,-2,F,2*15
$PFLAU,0,1,1,1,0,,0,,,*4F
$GPRMC,150732.00,A,5231.97877,N,00606.08297,E,1.743,67.96,130124,,,A*51
$GPGGA,150732.00,5231.97877,N,00606.08297,E,1,05,6.77,3.0,M,46.9,M,,*52
$PGRMZ,-2,F,2*15
$GPGSA,A,3,29,31,32,26,28,,,,,,,,8.70,6.77,5.47*0B
$PFLAU,0,1,1,1,0,,0,,,*4F
$GPRMC,150733.00,A,5231.97834,N,00606.08265,E,1.357,69.04,130124,,,A*5E
$GPGGA,150733.00,5231.97834,N,00606.08265,E,1,04,7.11,3.2,M,46.9,M,,*5B
$PGRMZ,-1,F,2*16
$GPGSA,A,3,29,31,32,28,,,,,,,,,9.49,7.11,6.30*06
$PFLAU,0,1,1,1,0,,0,,,*4F
$GPRMC,150734.00,A,5231.97882,N,00606.08221,E,1.358,68.70,130124,,,A*59
$GPGGA,150734.00,5231.97882,N,00606.08221,E,1,04,7.45,3.0,M,46.9,M,,*52
$PGRMZ,-2,F,2*15
$GPGSA,A,3,29,32,26,28,,,,,,,,,9.46,7.45,5.83*05
$PFLAU,0,1,1,1,0,,0,,,*4F
$PFLAL,15073503WV=:C><b%DE:F;*3B
$GPRMC,150735.00,A,5231.97907,N,00606.08205,E,2.016,86.85,130124,,,A*52
$GPGGA,150735.00,5231.97907,N,00606.08205,E,1,04,7.44,3.3,M,46.9,M,,*5B
$PGRMZ,-2,F,2*15
$PFLAU,0,1,1,1,0,,0,,,*4F
$GPRMC,150736.00,A,5231.97972,N,00606.08166,E,1.847,84.24,130124,,,A*53
$GPGGA,150736.00,5231.97972,N,00606.08166,E,1,04,7.44,3.4,M,46.9,M,,*5B
$PGRMZ,-1,F,2*16
$PFLAU,0,1,1,1,0,,0,,,*4F
$GPRMC,150737.00,A,5231.98024,N,00606.08103,E,1.984,36.45,130124,,,A*54
$GPGGA,150737.00,5231.98024,N,00606.08103,E,1,04,7.45,3.9,M,46.9,M,,*50
$PGRMZ,-1,F,2*16
$PFLAU,0,1,1,1,0,,0,,,*4F
$GPRMC,150738.00,A,5231.98100,N,00606.08073,E,2.341,16.79,130124,,,A*57
$GPGGA,150738.00,5231.98100,N,00606.08073,E,1,04,7.45,4.6,M,46.9,M,,*56
$PGRMZ,0,F,2*3A
$PFLAU,0,1,1,1,0,,0,,,*4F
$GPRMC,150739.00,A,5231.98130,N,00606.08032,E,1.334,16.85,130124,,,A*52
$GPGGA,150739.00,5231.98130,N,00606.08032,E,1,04,7.44,4.8,M,46.9,M,,*5E
$PGRMZ,1,F,2*3B
$PFLAU,0,1,1,1,0,,0,,,*4F
$GPRMC,150740.00,A,5231.98165,N,00606.08016,E,1.219,16.95,130124,,,A*55
$GPGGA,150740.00,5231.98165,N,00606.08016,E,1,04,7.45,4.9,M,46.9,M,,*56
$PGRMZ,0,F,2*3A
$PFLAU,0,1,1,1,0,,0,,,*4F
$GPRMC,150741.00,A,5231.98200,N,00606.07968,E,1.078,17.77,130124,,,A*53
$GPGGA,150741.00,5231.98200,N,00606.07968,E,1,04,7.45,5.0,M,46.9,M,,*50
$PGRMZ,-1,F,2*16
$PFLAU,0,1,1,1,0,,0,,,*4F
$GPRMC,150742.00,A,5231.98214,N,00606.07985,E,1.341,21.63,130124,,,A*5F
$GPGGA,150742.00,5231.98214,N,00606.07985,E,1,04,7.44,5.2,M,46.9,M,,*56
$PGRMZ,-1,F,2*16
$PFLAU,0,1,1,1,0,,0,,,*4F
$GPRMC,150743.00,A,5231.98215,N,00606.07971,E,0.369,26.99,130124,,,A*5D
$GPGGA,150743.00,5231.98215,N,00606.07971,E,1,04,7.45,5.1,M,46.9,M,,*5F
$PGRMZ,-1,F,2*16
$PFLAU,0,1,1,1,0,,0,,,*4F
$GPRMC,150744.00,A,5231.98230,N,00606.07947,E,1.198,28.45,130124,,,A*5A
$GPGGA,150744.00,5231.98230,N,00606.07947,E,1,04,7.44,4.7,M,46.9,M,,*5C
$PGRMZ,-1,F,2*16
$PFLAU,0,1,1,1,0,,0,,,*4F
$GPRMC,150745.00,A,5231.98269,N,00606.07964,E,1.587,27.87,130124,,,A*5D
$GPGGA,150745.00,5231.98269,N,00606.07964,E,1,04,7.45,3.6,M,46.9,M,,*57
$PGRMZ,0,F,2*3A
$PFLAU,0,1,1,1,0,,0,,,*4F
$GPRMC,150746.00,A,5231.98248,N,00606.08011,E,1.752,32.92,130124,,,A*53
$GPGGA,150746.00,5231.98248,N,00606.08011,E,1,04,7.45,2.8,M,46.9,M,,*5C
$PGRMZ,2,F,2*38
$PFLAU,0,1,1,1,0,,0,,,*4F
$GPRMC,150747.00,A,5231.98275,N,00606.07995,E,0.980,31.64,130124,,,A*5C
$GPGGA,150747.00,5231.98275,N,00606.07995,E,1,04,7.45,2.0,M,46.9,M,,*51
$PGRMZ,-1,F,2*16
$PFLAU,0,1,1,1,0,,0,,,*4F
$GPRMC,150748.00,A,5231.98303,N,00606.07925,E,1.759,32.61,130124,,,A*55
$GPGGA,150748.00,5231.98303,N,00606.07925,E,1,04,7.45,1.7,M,46.9,M,,*51
$PGRMZ,-1,F,2*16
$PFLAU,0,1,1,1,0,,0,,,*4F
$GPRMC,150749.00,A,5231.98339,N,00606.07916,E,1.359,34.34,130124,,,A*5F
$GPGGA,150749.00,5231.98339,N,00606.07916,E,1,04,7.45,1.6,M,46.9,M,,*58
$PGRMZ,0,F,2*3A
$PFLAU,0,1,1,1,0,,0,,,*4F
$GPRMC,150750.00,A,5231.98404,N,00606.07861,E,1.726,32.77,130124,,,A*52
$GPGGA,150750.00,5231.98404,N,00606.07861,E,1,04,7.45,1.2,M,46.9,M,,*5C
$PGRMZ,1,F,2*3B
$PFLAU,0,1,1,1,0,,0,,,*4F
$GPRMC,150751.00,A,5231.98418,N,00606.07835,E,0.593,36.10,130124,,,A*57
$GPGGA,150751.00,5231.98418,N,00606.07835,E,1,04,7.45,1.0,M,46.9,M,,*53
$PGRMZ,0,F,2*3A
$PFLAU,0,1,1,1,0,,0,,,*4F
$GPRMC,150752.00,A,5231.98418,N,00606.07830,E,1.163,41.75,130124,,,A*58
$GPGGA,150752.00,5231.98418,N,00606.07830,E,1,04,7.46,1.4,M,46.9,M,,*52
$PGRMZ,0,F,2*3A
$PFLAU,0,1,1,1,0,,0,,,*4F
$GPRMC,150753.00,A,5231.98471,N,00606.07763,E,1.733,37.84,130124,,,A*53
$GPGGA,150753.00,5231.98471,N,00606.07763,E,1,04,7.45,1.1,M,46.9,M,,*53
$PGRMZ,-1,F,2*16
$PFLAU,0,1,1,1,0,,0,,,*4F
$GPRMC,150754.00,A,5231.98449,N,00606.07737,E,0.536,42.31,130124,,,A*54
$GPGGA,150754.00,5231.98449,N,00606.07737,E,1,04,7.45,1.4,M,46.9,M,,*5B
$PGRMZ,-1,F,2*16
$PFLAU,0,1,1,1,0,,0,,,*4F
$GPRMC,150755.00,V,,,,,,,130124,,,N*7B
$GPGGA,150755.00,,,,,0,03,76.32,,,,,,*66
$GPGSA,A,1,29,32,28,,,,,,,,,,99.99,76.32,74.27*36
$PGRMZ,-1,F,2*16
$PFLAU,0,0,0,1,0,,0,,,*4F
$GPRMC,150756.00,A,5231.98432,N,00606.07905,E,1.245,50.88,130124,,,A*56
$GPGGA,150756.00,5231.98432,N,00606.07905,E,1,04,7.47,0.2,M,46.9,M,,*5F
$PGRMZ,0,F,2*3A
$GPGSA,A,3,29,32,26,28,,,,,,,,,9.48,7.47,5.84*0E
$PFLAU,0,1,1,1,0,,0,,,*4F
$GPRMC,150757.00,A,5231.98424,N,00606.07998,E,1.018,54.56,130124,,,A*59
$GPGGA,150757.00,5231.98424,N,00606.07998,E,1,04,7.46,0.0,M,46.9,M,,*5E
$PGRMZ,0,F,2*3A
$PFLAU,0,1,1,1,0,,0,,,*4F
$GPRMC,150758.00,A,5231.98437,N,00606.08175,E,0.486,57.14,130124,,,A*57
$GPGGA,150758.00,5231.98437,N,00606.08175,E,1,04,7.46,-0.5,M,46.9,M,,*7F
$PGRMZ,0,F,2*3A
$PFLAU,0,1,1,1,0,,0,,,*4F
$GPRMC,150759.00,A,5231.98422,N,00606.08280,E,1.509,59.72,130124,,,A*52
$GPGGA,150759.00,5231.98422,N,00606.08280,E,1,04,7.46,-0.6,M,46.9,M,,*70
$PGRMZ,0,F,2*3A
$PFLAU,0,1,1,1,0,,0,,,*4F
$GPRMC,150800.00,V,,,,,,,130124,,,N*74
$GPGGA,150800.00,,,,,0,03,76.34,,,,,,*6F
$GPGSA,A,1,29,32,28,,,,,,,,,,99.99,76.34,74.25*32
$PGRMZ,0,F,2*3A
$PFLAU,0,0,0,1,0,,0,,,*4F
$GPRMC,150801.00,V,,,,,,,130124,,,N*75
$GPGGA,150801.00,,,,,0,03,76.35,,,,,,*6F
$PGRMZ,0,F,2*3A
$GPRMC,150802.00,V,,,,,,,130124,,,N*76
$PFLAU,0,0,0,1,0,,0,,,*4F
$GPGGA,150802.00,,,,,0,03,76.35,,,,,,*6C
$PGRMZ,-1,F,2*16
$GPRMC,150803.00,V,,,,,,,130124,,,N*77
$GPGGA,150803.00,,,,,0,03,76.35,,,,,,*6D
$PFLAU,0,0,0,1,0,,0,,,*4F
$PGRMZ,-1,F,2*16
$GPRMC,150804.00,V,,,,,,,130124,,,N*70
$GPGGA,150804.00,,,,,0,03,76.36,,,,,,*69
$PFLAU,0,0,0,1,0,,0,,,*4F
$PGRMZ,-1,F,2*16
$GPRMC,150805.00,V,,,,,,,130124,,,N*71
$GPGGA,150805.00,,,,,0,03,76.36,,,,,,*68
$PFLAU,0,0,0,1,0,,0,,,*4F
$PGRMZ,-1,F,2*16
$GPRMC,150806.00,V,,,,,,,130124,,,N*72
$GPGGA,150806.00,,,,,0,03,76.37,,,,,,*6A
$PFLAU,0,0,0,1,0,,0,,,*4F
$PGRMZ,-1,F,2*16
$GPRMC,150807.00,V,,,,,,,130124,,,N*73
$GPGGA,150807.00,,,,,0,00,99.99,,,,,,*6D
$PFLAU,0,0,0,1,0,,0,,,*4F
$PGRMZ,-1,F,2*16
$GPRMC,150808.00,V,,,,,,,130124,,,N*7C
$GPGGA,150808.00,,,,,0,00,99.99,,,,,,*62
$PFLAU,0,0,0,1,0,,0,,,*4F
$PGRMZ,-1,F,2*16
$GPRMC,150809.00,V,,,,,,,130124,,,N*7D
$GPGGA,150809.00,,,,,0,00,99.99,,,,,,*63
$PFLAL,150809RFC 228 0 0 0 0*31
$PFLAU,0,0,0,1,0,,0,,,*4F
$PGRMZ,-1,F,2*16
$GPRMC,150810.00,V,,,,,,,130124,,,N*75
$GPGGA,150810.00,,,,,0,00,99.99,,,,,,*6B
$PFLAU,0,0,0,1,0,,0,,,*4F
$PGRMZ,-1,F,2*16
$GPRMC,150811.00,V,,,,,,,130124,,,N*74
$GPGGA,150811.00,,,,,0,00,99.99,,,,,,*6A
$PFLAU,0,0,0,1,0,,0,,,*4F
$PGRMZ,-1,F,2*16
$GPRMC,150812.00,V,,,,,,,130124,,,N*77
$GPGGA,150812.00,,,,,0,00,99.99,,,,,,*69
$PFLAU,0,0,0,1,0,,0,,,*4F
$PGRMZ,-1,F,2*16
$GPRMC,150813.00,V,,,,,,,130124,,,N*76
$GPGGA,150813.00,,,,,0,03,76.40,,,,,,*6E
$PFLAU,0,0,0,1,0,,0,,,*4F
$PGRMZ,-1,F,2*16
$GPRMC,150814.00,V,,,,,,,130124,,,N*71
$GPGGA,150814.00,,,,,0,03,76.40,,,,,,*69
$PFLAU,0,0,0,1,0,,0,,,*4F
$PGRMZ,-2,F,2*15
$GPRMC,150815.00,V,,,,,,,130124,,,N*70
$GPGGA,150815.00,,,,,0,03,76.41,,,,,,*69
$PFLAU,0,0,0,1,0,,0,,,*4F
$PGRMZ,-1,F,2*16
$GPRMC,150816.00,V,,,,,,,130124,,,N*73
$GPGGA,150816.00,,,,,0,03,76.41,,,,,,*6A
$PFLAU,0,0,0,1,0,,0,,,*4F
$PGRMZ,-1,F,2*16
$GPRMC,150817.00,V,,,,,,,130124,,,N*72
$GPGGA,150817.00,,,,,0,03,76.42,,,,,,*68
$PFLAU,0,0,0,1,0,,0,,,*4F
$GPRMC,150818.00,V,,,,,,,130124,,,N*7D
$GPGGA,150818.00,,,,,0,03,76.42,,,,,,*67
$PGRMZ,-1,F,2*16
$PFLAU,0,0,0,1,0,,0,,,*4F
$GPRMC,150819.00,V,,,,,,,130124,,,N*7C
$GPGGA,150819.00,,,,,0,03,76.42,,,,,,*66
$PGRMZ,-3,F,2*14
$PFLAU,0,0,0,1,0,,0,,,*4F
$GPRMC,150820.00,V,,,,,,,130124,,,N*76
$GPGGA,150820.00,,,,,0,03,76.43,,,,,,*6D
$PGRMZ,-1,F,2*16
$GPRMC,150821.00,V,,,,,,,130124,,,N*77
$PFLAU,0,0,0,1,0,,0,,,*4F
$GPGGA,150821.00,,,,,0,03,76.43,,,,,,*6C
$PGRMZ,0,F,2*3A
$GPRMC,150822.00,V,,,,,,,130124,,,N*74
$GPGGA,150822.00,,,,,0,03,76.44,,,,,,*68
$PFLAU,0,0,0,1,0,,0,,,*4F
$PGRMZ,-2,F,2*15
$GPRMC,150823.00,V,,,,,,,130124,,,N*75
$GPGGA,150823.00,,,,,0,03,76.44,,,,,,*69
$PFLAU,0,0,0,1,0,,0,,,*4F
$PGRMZ,-1,F,2*16
$GPRMC,150824.00,V,,,,,,,130124,,,N*72
$GPGGA,150824.00,,,,,0,03,76.45,,,,,,*6F
$PFLAU,0,0,0,1,0,,0,,,*4F
$PGRMZ,0,F,2*3A
$GPRMC,150825.00,V,,,,,,,130124,,,N*73
$GPGGA,150825.00,,,,,0,03,76.45,,,,,,*6E
$PFLAU,0,0,0,1,0,,0,,,*4F
$PGRMZ,-1,F,2*16
$GPRMC,150826.00,V,,,,,,,130124,,,N*70
$GPGGA,150826.00,,,,,0,03,76.45,,,,,,*6D
$PFLAU,0,0,0,1,0,,0,,,*4F
$PGRMZ,0,F,2*3A
$GPRMC,150827.00,V,,,,,,,130124,,,N*71
$GPGGA,150827.00,,,,,0,03,76.46,,,,,,*6F
$PFLAU,0,0,0,1,0,,0,,,*4F
$PGRMZ,-1,F,2*16
$GPRMC,150828.00,V,,,,,,,130124,,,N*7E
$GPGGA,150828.00,,,,,0,03,76.46,,,,,,*60
$PFLAU,0,0,0,1,0,,0,,,*4F
$PGRMZ,-1,F,2*16
$GPRMC,150829.00,V,,,,,,,130124,,,N*7F
$GPGGA,150829.00,,,,,0,03,76.47,,,,,,*60
$PFLAU,0,0,0,1,0,,0,,,*4F
$PGRMZ,-1,F,2*16
$GPRMC,150830.00,V,,,,,,,130124,,,N*77
$GPGGA,150830.00,,,,,0,03,76.47,,,,,,*68
$PFLAU,0,0,0,1,0,,0,,,*4F
$PGRMZ,-1,F,2*16
$GPRMC,150831.00,V,,,,,,,130124,,,N*76
$GPGGA,150831.00,,,,,0,03,76.48,,,,,,*66
$PFLAU,0,0,0,1,0,,0,,,*4F
$PGRMZ,-1,F,2*16
$GPRMC,150832.00,V,,,,,,,130124,,,N*75
$GPGGA,150832.00,,,,,0,03,76.48,,,,,,*65
$PFLAU,0,0,0,1,0,,0,,,*4F
$PGRMZ,0,F,2*3A
$GPRMC,150833.00,V,,,,,,,130124,,,N*74
$GPGGA,150833.00,,,,,0,03,76.48,,,,,,*64
$PFLAU,0,0,0,1,0,,0,,,*4F
$PGRMZ,0,F,2*3A
$GPRMC,150834.00,V,,,,,,,130124,,,N*73
$GPGGA,150834.00,,,,,0,03,76.49,,,,,,*62
$PFLAU,0,0,0,1,0,,0,,,*4F
$PGRMZ,0,F,2*3A
$GPRMC,150835.00,A,5231.98690,N,00606.09422,E,1.446,77.51,130124,,,A*54
$GPGGA,150835.00,5231.98690,N,00606.09422,E,1,04,7.49,-6.8,M,46.9,M,,*76
$GPGSA,A,3,29,32,26,28,,,,,,,,,9.52,7.49,5.87*08
$PFLAU,0,0,0,1,0,,0,,,*4F
$PGRMZ,-1,F,2*16
$GPRMC,150836.00,A,5231.98814,N,00606.09302,E,2.197,89.93,130124,,,A*55
$GPGGA,150836.00,5231.98814,N,00606.09302,E,1,04,7.49,-8.1,M,46.9,M,,*75
$PFLAU,0,0,0,1,0,,0,,,*4F
$PFLAL,15083703LMDCTQKC?xynro*36
$PGRMZ,0,F,2*3A
$GPRMC,150837.00,A,5231.98866,N,00606.09218,E,1.519,88.71,130124,,,A*57
$PFLAU,0,0,0,1,0,,0,,,*4F
$GPGGA,150837.00,5231.98866,N,00606.09218,E,1,04,7.49,-9.2,M,46.9,M,,*79
$PGRMZ,-2,F,2*15
$PFLAU,0,1,1,1,0,,0,,,*4F
$GPRMC,150838.00,A,5231.98948,N,00606.09133,E,1.551,85.84,130124,,,A*54
$GPGGA,150838.00,5231.98948,N,00606.09133,E,1,04,7.48,-10.5,M,46.9,M,,*4F
$PGRMZ,-2,F,2*15
$PFLAU,0,1,1,1,0,,0,,,*4F
$GPRMC,150839.00,A,5231.98992,N,00606.09106,E,1.851,85.64,130124,,,A*57
$GPGGA,150839.00,5231.98992,N,00606.09106,E,1,04,7.49,-11.6,M,46.9,M,,*4C
$PGRMZ,-1,F,2*16
$PFLAU,0,1,1,1,0,,0,,,*4F
$GPRMC,150840.00,A,5231.99018,N,00606.09104,E,2.046,90.51,130124,,,A*5E
$GPGGA,150840.00,5231.99018,N,00606.09104,E,1,04,7.49,-12.4,M,46.9,M,,*4B
$PGRMZ,0,F,2*3A
$PFLAU,0,1,1,1,0,,0,,,*4F
$GPRMC,150841.00,A,5231.99044,N,00606.09075,E,0.610,88.62,130124,,,A*5F
$GPGGA,150841.00,5231.99044,N,00606.09075,E,1,04,7.50,-13.6,M,46.9,M,,*4F
$PGRMZ,-1,F,2*16
$PFLAU,0,1,1,1,0,,0,,,*4F
$GPRMC,150842.00,A,5231.99048,N,00606.09085,E,0.704,84.74,130124,,,A*50
$GPGGA,150842.00,5231.99048,N,00606.09085,E,1,04,7.49,-14.5,M,46.9,M,,*43
$PGRMZ,-1,F,2*16
$PFLAU,0,1,1,1,0,,0,,,*4F
$GPRMC,150843.00,V,,,,,,,130124,,,N*73
$GPGGA,150843.00,,,,,0,03,76.53,,,,,,*69
$GPGSA,A,1,29,32,28,,,,,,,,,,99.99,76.53,74.12*37
$PGRMZ,-1,F,2*16
$PFLAU,0,0,0,1,0,,0,,,*4F
$GPRMC,150844.00,V,,,,,,,130124,,,N*74
$GPGGA,150844.00,,,,,0,03,76.53,,,,,,*6E
$PGRMZ,-2,F,2*15
$PFLAU,0,0,0,1,0,,0,,,*4F
$GPRMC,150845.00,V,,,,,,,130124,,,N*75
$GPGGA,150845.00,,,,,0,03,76.54,,,,,,*68
$PGRMZ,0,F,2*3A
$GPRMC,150846.00,V,,,,,,,130124,,,N*76
$PFLAU,0,0,0,1,0,,0,,,*4F
$GPGGA,150846.00,,,,,0,03,76.54,,,,,,*6B
$PGRMZ,-1,F,2*16
$GPRMC,150847.00,V,,,,,,,130124,,,N*77
$GPGGA,150847.00,,,,,0,03,76.54,,,,,,*6A
$PFLAU,0,0,0,1,0,,0,,,*4F
$PGRMZ,0,F,2*3A
$GPRMC,150848.00,V,,,,,,,130124,,,N*78
$GPGGA,150848.00,,,,,0,03,76.55,,,,,,*64
$PFLAU,0,0,0,1,0,,0,,,*4F
$PGRMZ,-1,F,2*16
$GPRMC,150849.00,V,,,,,,,130124,,,N*79
$GPGGA,150849.00,,,,,0,03,76.55,,,,,,*65
$PFLAU,0,0,0,1,0,,0,,,*4F
$PGRMZ,1,F,2*3B
$GPRMC,150850.00,V,,,,,,,130124,,,N*71
$GPGGA,150850.00,,,,,0,03,76.56,,,,,,*6E
$PFLAU,0,0,0,1,0,,0,,,*4F
$PGRMZ,0,F,2*3A
$GPRMC,150851.00,A,5231.99296,N,00606.09090,E,0.751,56.93,130124,,,A*51
$GPGGA,150851.00,5231.99296,N,00606.09090,E,1,04,7.50,-21.4,M,46.9,M,,*4B
$GPGSA,A,3,29,32,26,28,,,,,,,,,9.52,7.50,5.87*00
$PFLAU,0,0,0,1,0,,0,,,*4F
$PGRMZ,0,F,2*3A
$GPRMC,150852.00,A,5231.99366,N,00606.09042,E,0.579,53.23,130124,,,A*55
$GPGGA,150852.00,5231.99366,N,00606.09042,E,1,04,7.50,-21.8,M,46.9,M,,*45
$PFLAU,0,0,0,1,0,,0,,,*4F
$PGRMZ,0,F,2*3A
$GPRMC,150853.00,A,5231.99361,N,00606.09104,E,1.426,55.65,130124,,,A*5E
$PFLAU,0,0,0,1,0,,0,,,*4F
$GPGGA,150853.00,5231.99361,N,00606.09104,E,1,04,7.50,-22.3,M,46.9,M,,*48
$PGRMZ,-1,F,2*16
$PFLAU,0,1,1,1,0,,0,,,*4F
$GPRMC,150854.00,A,5231.99382,N,00606.09161,E,1.667,55.32,130124,,,A*52
$GPGGA,150854.00,5231.99382,N,00606.09161,E,1,04,7.50,-22.5,M,46.9,M,,*47
$PGRMZ,0,F,2*3A
$PFLAU,0,1,1,1,0,,0,,,*4F
$GPRMC,150855.00,A,5231.99366,N,00606.09245,E,2.368,85.20,130124,,,A*5B
$GPGGA,150855.00,5231.99366,N,00606.09245,E,1,04,7.50,-22.6,M,46.9,M,,*4A
$PGRMZ,0,F,2*3A
$PFLAU,0,1,1,1,0,,0,,,*4F
$GPRMC,150856.00,A,5231.99331,N,00606.09276,E,1.786,86.35,130124,,,A*5A
$GPGGA,150856.00,5231.99331,N,00606.09276,E,1,04,7.50,-22.8,M,46.9,M,,*45
$PGRMZ,0,F,2*3A
$PFLAU,0,1,1,1,0,,0,,,*4F
$GPRMC,150857.00,A,5231.99278,N,00606.09281,E,1.278,86.93,130124,,,A*57
$GPGGA,150857.00,5231.99278,N,00606.09281,E,1,04,7.50,-23.2,M,46.9,M,,*4B
$PGRMZ,-1,F,2*16
$PFLAU,0,1,1,1,0,,0,,,*4F
$GPRMC,150858.00,V,,,,,,,130124,,,N*79
$GPGGA,150858.00,,,,,0,03,76.59,,,,,,*69
$GPGSA,A,1,29,32,28,,,,,,,,,,99.99,76.59,74.07*39
$PGRMZ,0,F,2*3A
$PFLAU,0,0,0,1,0,,0,,,*4F
$GPRMC,150859.00,V,,,,,,,130124,,,N*78
$GPGGA,150859.00,,,,,0,03,76.60,,,,,,*62
$PGRMZ,0,F,2*3A
$GPRMC,150900.00,V,,,,,,,130124,,,N*75
$PFLAU,0,0,0,1,0,,0,,,*4F
$GPGGA,150900.00,,,,,0,03,76.60,,,,,,*6F
$PGRMZ,-1,F,2*16
$GPRMC,150901.00,V,,,,,,,130124,,,N*74
$GPGGA,150901.00,,,,,0,03,76.60,,,,,,*6E
$PFLAU,0,0,0,1,0,,0,,,*4F
$PGRMZ,0,F,2*3A
$GPRMC,150902.00,V,,,,,,,130124,,,N*77
$GPGGA,150902.00,,,,,0,03,76.61,,,,,,*6C
$PFLAU,0,0,0,1,0,,0,,,*4F
$PGRMZ,1,F,2*3B
$GPRMC,150903.00,V,,,,,,,130124,,,N*76
$GPGGA,150903.00,,,,,0,03,76.61,,,,,,*6D
$PFLAU,0,0,0,1,0,,0,,,*4F
$PGRMZ,2,F,2*38
$GPRMC,150904.00,V,,,,,,,130124,,,N*71
$GPGGA,150904.00,,,,,0,03,76.62,,,,,,*69
$PFLAU,0,0,0,1,0,,0,,,*4F
$PGRMZ,0,F,2*3A
$GPRMC,150905.00,V,,,,,,,130124,,,N*70
$GPGGA,150905.00,,,,,0,03,76.62,,,,,,*68
$PFLAU,0,0,0,1,0,,0,,,*4F
$PGRMZ,0,F,2*3A
$GPRMC,150906.00,V,,,,,,,130124,,,N*73
$GPGGA,150906.00,,,,,0,03,76.62,,,,,,*6B
$PFLAU,0,0,0,1,0,,0,,,*4F
$PGRMZ,0,F,2*3A
$GPRMC,150907.00,V,,,,,,,130124,,,N*72
$GPGGA,150907.00,,,,,0,03,76.63,,,,,,*6B
$PFLAU,0,0,0,1,0,,0,,,*4F
$PGRMZ,0,F,2*3A
$GPRMC,150908.00,V,,,,,,,130124,,,N*7D
$GPGGA,150908.00,,,,,0,00,99.99,,,,,,*63
$PFLAU,0,0,0,1,0,,0,,,*4F
$PGRMZ,0,F,2*3A
$GPRMC,150909.00,V,,,,,,,130124,,,N*7C
$GPGGA,150909.00,,,,,0,03,76.64,,,,,,*62
$PFLAU,0,0,0,1,0,,0,,,*4F
$PGRMZ,0,F,2*3A
$GPRMC,150910.00,V,,,,,,,130124,,,N*74
$GPGGA,150910.00,,,,,0,03,76.64,,,,,,*6A
$PFLAU,0,0,0,1,0,,0,,,*4F
$PGRMZ,0,F,2*3A
$GPRMC,150911.00,V,,,,,,,130124,,,N*75
$GPGGA,150911.00,,,,,0,03,76.65,,,,,,*6A
$PFLAU,0,0,0,1,0,,0,,,*4F
$PGRMZ,0,F,2*3A
$GPRMC,150912.00,V,,,,,,,130124,,,N*76
$GPGGA,150912.00,,,,,0,03,76.65,,,,,,*69
$PFLAU,0,0,0,1,0,,0,,,*4F
$PGRMZ,-2,F,2*15
$GPRMC,150913.00,V,,,,,,,130124,,,N*77
$GPGGA,150913.00,,,,,0,03,76.65,,,,,,*68
$PFLAU,0,0,0,1,0,,0,,,*4F
$PGRMZ,-1,F,2*16
$GPRMC,150914.00,V,,,,,,,130124,,,N*70
$GPGGA,150914.00,,,,,0,03,76.66,,,,,,*6C
$PFLAU,0,0,0,1,0,,0,,,*4F
$PGRMZ,-1,F,2*16
$GPRMC,150915.00,V,,,,,,,130124,,,N*71
$GPGGA,150915.00,,,,,0,03,76.66,,,,,,*6D
$PFLAU,0,0,0,1,0,,0,,,*4F
$GPRMC,150916.00,V,,,,,,,130124,,,N*72
$GPGGA,150916.00,,,,,0,03,76.67,,,,,,*6F
$PGRMZ,-1,F,2*16
$PFLAU,0,0,0,1,0,,0,,,*4F
$GPRMC,150917.00,V,,,,,,,130124,,,N*73
$GPGGA,150917.00,,,,,0,03,76.67,,,,,,*6E
$PGRMZ,-2,F,2*15
$PFLAU,0,0,0,1,0,,0,,,*4F
$GPRMC,150918.00,V,,,,,,,130124,,,N*7C
$GPGGA,150918.00,,,,,0,03,76.68,,,,,,*6E
$PGRMZ,-1,F,2*16
$GPRMC,150919.00,V,,,,,,,130124,,,N*7D
$PFLAU,0,0,0,1,0,,0,,,*4F
$GPGGA,150919.00,,,,,0,03,76.68,,,,,,*6F
$PGRMZ,-1,F,2*16
$GPRMC,150920.00,V,,,,,,,130124,,,N*77
$GPGGA,150920.00,,,,,0,03,76.68,,,,,,*65
$PFLAU,0,0,0,1,0,,0,,,*4F
$PGRMZ,0,F,2*3A
$GPRMC,150921.00,V,,,,,,,130124,,,N*76
$GPGGA,150921.00,,,,,0,03,76.69,,,,,,*65
$PFLAU,0,0,0,1,0,,0,,,*4F
$PGRMZ,-1,F,2*16
$GPRMC,150922.00,V,,,,,,,130124,,,N*75
$GPGGA,150922.00,,,,,0,03,76.69,,,,,,*66
$PFLAU,0,0,0,1,0,,0,,,*4F
$PGRMZ,0,F,2*3A
$GPRMC,150923.00,V,,,,,,,130124,,,N*74
$GPGGA,150923.00,,,,,0,03,76.70,,,,,,*6F
$PFLAU,0,0,0,1,0,,0,,,*4F
$PGRMZ,0,F,2*3A
$GPRMC,150924.00,V,,,,,,,130124,,,N*73
$GPGGA,150924.00,,,,,0,03,76.70,,,,,,*68
$PFLAU,0,0,0,1,0,,0,,,*4F
$PGRMZ,0,F,2*3A
$GPRMC,150925.00,V,,,,,,,130124,,,N*72
$GPGGA,150925.00,,,,,0,03,76.70,,,,,,*69
$PFLAU,0,0,0,1,0,,0,,,*4F
$PGRMZ,1,F,2*3B
$GPRMC,150926.00,V,,,,,,,130124,,,N*71
$GPGGA,150926.00,,,,,0,03,76.71,,,,,,*6B
$PFLAU,0,0,0,1,0,,0,,,*4F
$PGRMZ,-1,F,2*16
$GPRMC,150927.00,V,,,,,,,130124,,,N*70
$GPGGA,150927.00,,,,,0,03,76.71,,,,,,*6A
$PFLAU,0,0,0,1,0,,0,,,*4F
$PGRMZ,0,F,2*3A
$GPRMC,150928.00,V,,,,,,,130124,,,N*7F
$GPGGA,150928.00,,,,,0,03,76.72,,,,,,*66
$PFLAU,0,0,0,1,0,,0,,,*4F
$PGRMZ,-1,F,2*16
$GPRMC,150929.00,V,,,,,,,130124,,,N*7E
$GPGGA,150929.00,,,,,0,03,76.72,,,,,,*67
$PFLAU,0,0,0,1,0,,0,,,*4F
$PGRMZ,1,F,2*3B
$GPRMC,150930.00,V,,,,,,,130124,,,N*76
$GPGGA,150930.00,,,,,0,03,76.73,,,,,,*6E
$PFLAU,0,0,0,1,0,,0,,,*4F
$PGRMZ,-1,F,2*16
$GPRMC,150931.00,V,,,,,,,130124,,,N*77
$GPGGA,150931.00,,,,,0,03,76.73,,,,,,*6F
$PFLAU,0,0,0,1,0,,0,,,*4F
$PGRMZ,0,F,2*3A
$GPRMC,150932.00,V,,,,,,,130124,,,N*74
$GPGGA,150932.00,,,,,0,03,76.73,,,,,,*6C
$PFLAU,0,0,0,1,0,,0,,,*4F
$PGRMZ,0,F,2*3A
$GPRMC,150933.00,V,,,,,,,130124,,,N*75
$GPGGA,150933.00,,,,,0,03,76.74,,,,,,*6A
$PFLAU,0,0,0,1,0,,0,,,*4F
$PGRMZ,2,F,2*38
$GPRMC,150934.00,V,,,,,,,130124,,,N*72
$GPGGA,150934.00,,,,,0,03,76.74,,,,,,*6D
$PFLAU,0,0,0,1,0,,0,,,*4F
$GPRMC,150935.00,V,,,,,,,130124,,,N*73
$PGRMZ,0,F,2*3A
$GPGGA,150935.00,,,,,0,03,76.75,,,,,,*6D
$PFLAU,0,0,0,1,0,,0,,,*4F
$GPRMC,150936.00,V,,,,,,,130124,,,N*70
$GPGGA,150936.00,,,,,0,03,76.75,,,,,,*6E
$PGRMZ,2,F,2*38
$PFLAU,0,0,0,1,0,,0,,,*4F
$GPRMC,150937.00,V,,,,,,,130124,,,N*71
$GPGGA,150937.00,,,,,0,03,76.75,,,,,,*6F
$PGRMZ,0,F,2*3A
$PFLAU,0,0,0,1,0,,0,,,*4F
$PFLAL,15093803@A#[I><gZMLSOR*3E
$GPRMC,150938.00,V,,,,,,,130124,,,N*7E
$GPGGA,150938.00,,,,,0,03,76.76,,,,,,*63
$PGRMZ,0,F,2*3A
$GPRMC,150939.00,V,,,,,,,130124,,,N*7F
$PFLAU,0,0,0,1,0,,0,,,*4F
$GPGGA,150939.00,,,,,0,03,76.76,,,,,,*62
$PGRMZ,1,F,2*3B
$GPRMC,150940.00,V,,,,,,,130124,,,N*71
$GPGGA,150940.00,,,,,0,03,76.77,,,,,,*6D
$PFLAU,0,0,0,1,0,,0,,,*4F
$PGRMZ,0,F,2*3A
$GPRMC,150941.00,V,,,,,,,130124,,,N*70
$GPGGA,150941.00,,,,,0,03,76.77,,,,,,*6C
$PFLAU,0,0,0,1,0,,0,,,*4F
$PGRMZ,0,F,2*3A
$GPRMC,150942.00,V,,,,,,,130124,,,N*73
$GPGGA,150942.00,,,,,0,03,76.77,,,,,,*6F
$PFLAU,0,0,0,1,0,,0,,,*4F
$PGRMZ,0,F,2*3A
$GPRMC,150943.00,V,,,,,,,130124,,,N*72
$GPGGA,150943.00,,,,,0,03,76.78,,,,,,*61
$PFLAU,0,0,0,1,0,,0,,,*4F
$PGRMZ,-1,F,2*16
$GPRMC,150944.00,V,,,,,,,130124,,,N*75
$GPGGA,150944.00,,,,,0,03,76.78,,,,,,*66
$PFLAU,0,0,0,1,0,,0,,,*4F
$PGRMZ,0,F,2*3A
$GPRMC,150945.00,V,,,,,,,130124,,,N*74
$GPGGA,150945.00,,,,,0,03,76.79,,,,,,*66
$PFLAU,0,0,0,1,0,,0,,,*4F
$PGRMZ,1,F,2*3B
$GPRMC,150946.00,V,,,,,,,130124,,,N*77
$GPGGA,150946.00,,,,,0,03,76.79,,,,,,*65
$PFLAU,0,0,0,1,0,,0,,,*4F
$PGRMZ,-1,F,2*16
$GPRMC,150947.00,V,,,,,,,130124,,,N*76
$GPGGA,150947.00,,,,,0,03,76.79,,,,,,*64
$PFLAU,0,0,0,1,0,,0,,,*4F
$PGRMZ,1,F,2*3B
$GPRMC,150948.00,V,,,,,,,130124,,,N*79
$GPGGA,150948.00,,,,,0,03,76.80,,,,,,*6D
$PFLAU,0,0,0,1,0,,0,,,*4F
$PGRMZ,-1,F,2*16
$GPRMC,150949.00,V,,,,,,,130124,,,N*78
$GPGGA,150949.00,,,,,0,03,76.80,,,,,,*6C
$PFLAU,0,0,0,1,0,,0,,,*4F
$PGRMZ,0,F,2*3A
$GPRMC,150950.00,V,,,,,,,130124,,,N*70
$GPGGA,150950.00,,,,,0,03,76.81,,,,,,*65
$PFLAU,0,0,0,1,0,,0,,,*4F
$PGRMZ,0,F,2*3A
$GPRMC,150951.00,V,,,,,,,130124,,,N*71
$GPGGA,150951.00,,,,,0,03,76.81,,,,,,*64
$PFLAU,0,0,0,1,0,,0,,,*4F
$PGRMZ,0,F,2*3A
$GPRMC,150952.00,V,,,,,,,130124,,,N*72
$GPGGA,150952.00,,,,,0,03,76.82,,,,,,*64
$PFLAU,0,0,0,1,0,,0,,,*4F
$PGRMZ,0,F,2*3A
$GPRMC,150953.00,V,,,,,,,130124,,,N*73
$GPGGA,150953.00,,,,,0,03,76.82,,,,,,*65
$PFLAU,0,0,0,1,0,,0,,,*4F
$PGRMZ,0,F,2*3A
$GPRMC,150954.00,V,,,,,,,130124,,,N*74
$GPGGA,150954.00,,,,,0,03,76.82,,,,,,*62
$PFLAU,0,0,0,1,0,,0,,,*4F
$GPRMC,150955.00,V,,,,,,,130124,,,N*75
$GPGGA,150955.00,,,,,0,03,76.83,,,,,,*62
$PGRMZ,0,F,2*3A
$PFLAU,0,0,0,1,0,,0,,,*4F
$GPRMC,150956.00,V,,,,,,,130124,,,N*76
$GPGGA,150956.00,,,,,0,03,76.83,,,,,,*61
$PGRMZ,0,F,2*3A
$PFLAU,0,0,0,1,0,,0,,,*4F
$GPRMC,150957.00,V,,,,,,,130124,,,N*77
$GPGGA,150957.00,,,,,0,03,76.84,,,,,,*67
$PGRMZ,-1,F,2*16
$GPRMC,150958.00,V,,,,,,,130124,,,N*78
$PFLAU,0,0,0,1,0,,0,,,*4F
$GPGGA,150958.00,,,,,0,03,76.84,,,,,,*68
$PGRMZ,1,F,2*3B
$GPRMC,150959.00,V,,,,,,,130124,,,N*79
$GPGGA,150959.00,,,,,0,03,76.84,,,,,,*69
$PFLAU,0,0,0,1,0,,0,,,*4F
$PGRMZ,-1,F,2*16
$GPRMC,151000.00,V,,,,,,,130124,,,N*7D
$GPGGA,151000.00,,,,,0,03,76.85,,,,,,*6C
$PFLAU,0,0,0,1,0,,0,,,*4F
$PGRMZ,-1,F,2*16
$GPRMC,151001.00,V,,,,,,,130124,,,N*7C
$GPGGA,151001.00,,,,,0,03,76.85,,,,,,*6D
$PFLAU,0,0,0,1,0,,0,,,*4F
$PGRMZ,0,F,2*3A
$GPRMC,151002.00,V,,,,,,,130124,,,N*7F
$GPGGA,151002.00,,,,,0,03,76.86,,,,,,*6D
$PFLAU,0,0,0,1,0,,0,,,*4F
$PGRMZ,0,F,2*3A
$GPRMC,151003.00,V,,,,,,,130124,,,N*7E
$GPGGA,151003.00,,,,,0,03,76.86,,,,,,*6C
$PFLAU,0,0,0,1,0,,0,,,*4F
$PGRMZ,0,F,2*3A
$GPRMC,151004.00,V,,,,,,,130124,,,N*79
$GPGGA,151004.00,,,,,0,03,76.86,,,,,,*6B
$PFLAU,0,0,0,1,0,,0,,,*4F
$PGRMZ,0,F,2*3A
$GPRMC,151005.00,V,,,,,,,130124,,,N*78
$GPGGA,151005.00,,,,,0,03,76.87,,,,,,*6B
$PFLAU,0,0,0,1,0,,0,,,*4F
$PGRMZ,0,F,2*3A
$GPRMC,151006.00,V,,,,,,,130124,,,N*7B
$GPGGA,151006.00,,,,,0,03,76.87,,,,,,*68
$PFLAU,0,0,0,1,0,,0,,,*4F
$PGRMZ,-1,F,2*16
$GPRMC,151007.00,V,,,,,,,130124,,,N*7A
$GPGGA,151007.00,,,,,0,03,76.88,,,,,,*66
$PFLAU,0,0,0,1,0,,0,,,*4F
$PGRMZ,2,F,2*38
$GPRMC,151008.00,V,,,,,,,130124,,,N*75
$GPGGA,151008.00,,,,,0,03,76.88,,,,,,*69
$PFLAU,0,0,0,1,0,,0,,,*4F
$PGRMZ,0,F,2*3A
$GPRMC,151009.00,V,,,,,,,130124,,,N*74
$GPGGA,151009.00,,,,,0,03,76.88,,,,,,*68
$PFLAU,0,0,0,1,0,,0,,,*4F
$PGRMZ,1,F,2*3B
$GPRMC,151010.00,V,,,,,,,130124,,,N*7C
$GPGGA,151010.00,,,,,0,03,76.89,,,,,,*61
$PFLAU,0,0,0,1,0,,0,,,*4F
$PGRMZ,0,F,2*3A
$GPRMC,151011.00,V,,,,,,,130124,,,N*7D
$GPGGA,151011.00,,,,,0,03,76.89,,,,,,*60
$PFLAU,0,0,0,1,0,,0,,,*4F
$PGRMZ,1,F,2*3B
$GPRMC,151012.00,V,,,,,,,130124,,,N*7E
$GPGGA,151012.00,,,,,0,03,76.90,,,,,,*6B
$PFLAU,0,0,0,1,0,,0,,,*4F
$PGRMZ,0,F,2*3A
$GPRMC,151013.00,V,,,,,,,130124,,,N*7F
$GPGGA,151013.00,,,,,0,03,76.90,,,,,,*6A
$PFLAU,0,0,0,1,0,,0,,,*4F
$GPRMC,151014.00,V,,,,,,,130124,,,N*78
$PGRMZ,0,F,2*3A
$GPGGA,151014.00,,,,,0,03,76.90,,,,,,*6D
$PFLAU,0,0,0,1,0,,0,,,*4F
$GPRMC,151015.00,V,,,,,,,130124,,,N*79
$GPGGA,151015.00,,,,,0,03,76.91,,,,,,*6D
$PGRMZ,2,F,2*38
$PFLAU,0,0,0,1,0,,0,,,*4F
$GPRMC,151016.00,V,,,,,,,130124,,,N*7A
$GPGGA,151016.00,,,,,0,03,76.91,,,,,,*6E
$PGRMZ,0,F,2*3A
$PFLAU,0,0,0,1,0,,0,,,*4F
$GPRMC,151017.00,V,,,,,,,130124,,,N*7B
$GPGGA,151017.00,,,,,0,03,76.92,,,,,,*6C
$PGRMZ,0,F,2*3A
$GPRMC,151018.00,V,,,,,,,130124,,,N*74
$PFLAU,0,0,0,1,0,,0,,,*4F
$GPGGA,151018.00,,,,,0,03,76.92,,,,,,*63
$PGRMZ,0,F,2*3A
$GPRMC,151019.00,V,,,,,,,130124,,,N*75
$GPGGA,151019.00,,,,,0,03,76.92,,,,,,*62
$PFLAU,0,0,0,1,0,,0,,,*4F
$PGRMZ,1,F,2*3B
$GPRMC,151020.00,V,,,,,,,130124,,,N*7F
$GPGGA,151020.00,,,,,0,03,76.93,,,,,,*69
$PFLAU,0,0,0,1,0,,0,,,*4F
$PGRMZ,0,F,2*3A
$GPRMC,151021.00,V,,,,,,,130124,,,N*7E
$GPGGA,151021.00,,,,,0,03,76.93,,,,,,*68
$PFLAU,0,0,0,1,0,,0,,,*4F
$PGRMZ,0,F,2*3A
$GPRMC,151022.00,V,,,,,,,130124,,,N*7D
$GPGGA,151022.00,,,,,0,03,76.94,,,,,,*6C
$PFLAU,0,0,0,1,0,,0,,,*4F
$PGRMZ,0,F,2*3A
$GPRMC,151023.00,V,,,,,,,130124,,,N*7C
$GPGGA,151023.00,,,,,0,03,76.94,,,,,,*6D
$PFLAU,0,0,0,1,0,,0,,,*4F
$PGRMZ,0,F,2*3A
$GPRMC,151024.00,V,,,,,,,130124,,,N*7B
$GPGGA,151024.00,,,,,0,03,76.94,,,,,,*6A
$PFLAU,0,0,0,1,0,,0,,,*4F
$PGRMZ,0,F,2*3A
$GPRMC,151025.00,V,,,,,,,130124,,,N*7A
$GPGGA,151025.00,,,,,0,03,76.95,,,,,,*6A
$PFLAU,0,0,0,1,0,,0,,,*4F
$PGRMZ,0,F,2*3A
$GPRMC,151026.00,V,,,,,,,130124,,,N*79
$GPGGA,151026.00,,,,,0,03,76.95,,,,,,*69
$PFLAU,0,0,0,1,0,,0,,,*4F
$PGRMZ,0,F,2*3A
$GPRMC,151027.00,V,,,,,,,130124,,,N*78
$GPGGA,151027.00,,,,,0,03,76.96,,,,,,*6B
$PFLAU,0,0,0,1,0,,0,,,*4F
$PGRMZ,-1,F,2*16
$GPRMC,151028.00,V,,,,,,,130124,,,N*77
$GPGGA,151028.00,,,,,0,03,76.96,,,,,,*64
$PFLAU,0,0,0,1,0,,0,,,*4F
$PGRMZ,0,F,2*3A
$GPRMC,151029.00,V,,,,,,,130124,,,N*76
$GPGGA,151029.00,,,,,0,03,76.96,,,,,,*65
$PFLAU,0,0,0,1,0,,0,,,*4F
$PGRMZ,0,F,2*3A
$GPRMC,151030.00,V,,,,,,,130124,,,N*7E
$GPGGA,151030.00,,,,,0,03,76.97,,,,,,*6C
$PFLAU,0,0,0,1,0,,0,,,*4F
$PGRMZ,0,F,2*3A
$GPRMC,151031.00,V,,,,,,,130124,,,N*7F
$GPGGA,151031.00,,,,,0,03,76.97,,,,,,*6D
$PFLAU,0,0,0,1,0,,0,,,*4F
$PGRMZ,0,F,2*3A
$GPRMC,151032.00,V,,,,,,,130124,,,N*7C
$GPGGA,151032.00,,,,,0,03,76.98,,,,,,*61
$PFLAU,0,0,0,1,0,,0,,,*4F
$PGRMZ,-1,F,2*16
$GPRMC,151033.00,V,,,,,,,130124,,,N*7D
$GPGGA,151033.00,,,,,0,03,76.98,,,,,,*60
$PFLAU,0,0,0,1,0,,0,,,*4F
$GPRMC,151034.00,V,,,,,,,130124,,,N*7A
$GPGGA,151034.00,,,,,0,03,76.98,,,,,,*67
$PGRMZ,-1,F,2*16
$PFLAU,0,0,0,1,0,,0,,,*4F
$GPRMC,151035.00,V,,,,,,,130124,,,N*7B
$GPGGA,151035.00,,,,,0,03,76.99,,,,,,*67
$PGRMZ,-1,F,2*16
$PFLAU,0,0,0,1,0,,0,,,*4F
$GPRMC,151036.00,V,,,,,,,130124,,,N*78
$GPGGA,151036.00,,,,,0,03,76.99,,,,,,*64
$PGRMZ,0,F,2*3A
$PFLAU,0,0,0,1,0,,0,,,*4F
$GPRMC,151037.00,V,,,,,,,130124,,,N*79
$GPGGA,151037.00,,,,,0,03,77.00,,,,,,*64
$PGRMZ,-1,F,2*16
$GPRMC,151038.00,V,,,,,,,130124,,,N*76
$GPGGA,151038.00,,,,,0,03,77.00,,,,,,*6B
$PFLAU,0,0,0,1,0,,0,,,*4F
$PGRMZ,-1,F,2*16
$GPRMC,151039.00,V,,,,,,,130124,,,N*77
$GPGGA,151039.00,,,,,0,03,77.00,,,,,,*6A
$PFLAU,0,0,0,1,0,,0,,,*4F
$PGRMZ,0,F,2*3A
$GPRMC,151040.00,V,,,,,,,130124,,,N*79
$GPGGA,151040.00,,,,,0,03,77.01,,,,,,*65
$PFLAU,0,0,0,1,0,,0,,,*4F
